{
  "version": 0.6,
  "generator": "Overpass API 0.7.62.11 87bfad18",
  "osm3s": {
    "timestamp_osm_base": "2026-06-02T03:02:19Z",
    "copyright": "The data included in this document is from www.openstreetmap.org. The data is made available under ODbL."
  },
  "elements": [

{
  "type": "node",
  "id": 249408215,
  "lat": -4.0834905,
  "lon": -79.2006418,
  "tags": {
    "gns_classification": "MTS",
    "gns_uni": "-1369046",
    "is_in:country": "Ecuador",
    "is_in:country_code": "EC",
    "is_in:state": "Provincia de Loja",
    "name": "Nudo de Cajanuma",
    "place": "hamlet",
    "source": "GNS"
  }
},
{
  "type": "node",
  "id": 249418337,
  "lat": -4.0781735,
  "lon": -78.6667137,
  "tags": {
    "gns_classification": "AREA",
    "gns_uni": "175429",
    "is_in:country": "Ecuador",
    "is_in:country_code": "EC",
    "is_in:state": "Provincia de Zamora Chinchipe",
    "name": "Pantaña",
    "place": "hamlet",
    "source": "GNS"
  }
},
{
  "type": "node",
  "id": 249418356,
  "lat": -4.0430560,
  "lon": -78.9383330,
  "tags": {
    "gns_classification": "LCTY",
    "gns_uni": "175909",
    "is_in:country": "Ecuador",
    "is_in:country_code": "EC",
    "is_in:state": "Provincia de Zamora Chinchipe",
    "name": "La Conga",
    "place": "locality",
    "source": "GNS"
  }
},
{
  "type": "node",
  "id": 249418365,
  "lat": -4.1602092,
  "lon": -78.9440599,
  "tags": {
    "name": "Numbami",
    "place": "hamlet",
    "source": "GNS"
  }
},
{
  "type": "node",
  "id": 249418385,
  "lat": -4.1000000,
  "lon": -78.8316670,
  "tags": {
    "gns_classification": "RDGE",
    "gns_uni": "176012",
    "is_in:country": "Ecuador",
    "is_in:country_code": "EC",
    "is_in:state": "Provincia de Zamora Chinchipe",
    "name": "Filo de Nambija",
    "place": "locality",
    "source": "GNS"
  }
},
{
  "type": "node",
  "id": 249418408,
  "lat": -4.1859269,
  "lon": -78.9365751,
  "tags": {
    "name": "Romerillos",
    "place": "hamlet",
    "source": "GNS"
  }
},
{
  "type": "node",
  "id": 249420725,
  "lat": -4.5813631,
  "lon": -79.4268699,
  "tags": {
    "gns_classification": "PPL",
    "gns_uni": "-1367965",
    "is_in:country": "Ecuador",
    "is_in:country_code": "EC",
    "is_in:state": "Provincia de Loja",
    "name": "Amaluza",
    "place": "town",
    "population": "3438",
    "population:date": "2010",
    "source": "GNS"
  }
},
{
  "type": "node",
  "id": 249421860,
  "lat": -4.5657037,
  "lon": -79.4569794,
  "tags": {
    "gns_classification": "PPL",
    "is_in:country": "Ecuador",
    "is_in:country_code": "EC",
    "is_in:state": "Provincia de Loja",
    "name": "Bellavista",
    "place": "village",
    "source": "GNS"
  }
},
{
  "type": "node",
  "id": 249422254,
  "lat": -4.2855905,
  "lon": -79.2173352,
  "tags": {
    "name": "Mollepamba",
    "place": "hamlet",
    "source": "GNS"
  }
},
{
  "type": "node",
  "id": 249422353,
  "lat": -4.2081244,
  "lon": -79.2803055,
  "tags": {
    "name": "Ceibopamba",
    "place": "hamlet",
    "source": "GNS"
  }
},
{
  "type": "node",
  "id": 249422526,
  "lat": -4.4897506,
  "lon": -79.4856663,
  "tags": {
    "gns_classification": "PPL",
    "gns_uni": "-1369929",
    "is_in:country": "Ecuador",
    "is_in:country_code": "EC",
    "is_in:state": "Provincia de Loja",
    "name": "Tierras Coloradas",
    "place": "hamlet",
    "source": "GNS"
  }
},
{
  "type": "node",
  "id": 249422626,
  "lat": -4.9342984,
  "lon": -79.0411560,
  "tags": {
    "gns_classification": "PPL",
    "is_in:country": "Ecuador",
    "is_in:country_code": "EC",
    "is_in:state": "Provincia de Zamora Chinchipe",
    "name": "Chito",
    "place": "village",
    "source": "GNS"
  }
},
{
  "type": "node",
  "id": 249422831,
  "lat": -4.5914017,
  "lon": -79.4859667,
  "tags": {
    "gns_classification": "PPL",
    "gns_uni": "-1370482",
    "is_in:country": "Ecuador",
    "is_in:country_code": "EC",
    "is_in:state": "Provincia de Loja",
    "name": "Carrizo",
    "place": "hamlet",
    "source": "GNS"
  }
},
{
  "type": "node",
  "id": 249423173,
  "lat": -4.2009552,
  "lon": -79.2285824,
  "tags": {
    "name": "El Carmen",
    "place": "village",
    "source": "GNS"
  }
},
{
  "type": "node",
  "id": 249423520,
  "lat": -4.4155730,
  "lon": -79.4324286,
  "tags": {
    "gns_classification": "PPL",
    "is_in:country": "Ecuador",
    "is_in:country_code": "EC",
    "is_in:state": "Provincia de Loja",
    "name": "El Ingenio",
    "place": "village",
    "source": "GNS"
  }
},
{
  "type": "node",
  "id": 249423531,
  "lat": -4.4014083,
  "lon": -79.4682857,
  "tags": {
    "capital": "8",
    "gns_classification": "PPL",
    "is_capital": "municipality",
    "is_in:country": "Ecuador",
    "is_in:country_code": "EC",
    "is_in:county": "Calvas",
    "is_in:municipality": "El Lucero",
    "is_in:state": "Loja",
    "name": "El Lucero",
    "place": "village",
    "population": "2025",
    "population:date": "2010",
    "source": "GNS"
  }
},
{
  "type": "node",
  "id": 249423752,
  "lat": -4.2302729,
  "lon": -79.4365638,
  "tags": {
    "gns_classification": "PPL",
    "is_capital": "county",
    "is_in:country": "Ecuador",
    "is_in:country_code": "EC",
    "is_in:state": "Provincia de Loja",
    "name": "Gonzanamá",
    "place": "town",
    "population": "2521",
    "population:date": "2010",
    "source": "GNS",
    "wikidata": "Q3773331",
    "wikipedia": "en:Gonzanamá"
  }
},
{
  "type": "node",
  "id": 249423908,
  "lat": -4.6094309,
  "lon": -79.4160828,
  "tags": {
    "gns_classification": "PPL",
    "gns_uni": "-1372232",
    "is_in:country": "Ecuador",
    "is_in:country_code": "EC",
    "is_in:state": "Provincia de Loja",
    "name": "Gonsapamba",
    "name:en": "Consapamba",
    "name:es": "Consapamba",
    "place": "hamlet",
    "source": "GNS"
  }
},
{
  "type": "node",
  "id": 249424025,
  "lat": -4.0462715,
  "lon": -78.6822638,
  "tags": {
    "gns_classification": "PPL",
    "is_capital": "county",
    "is_in:country": "Ecuador",
    "is_in:country_code": "EC",
    "is_in:state": "Provincia de Zamora Chinchipe",
    "name": "Guayzimi",
    "place": "village",
    "source": "GNS"
  }
},
{
  "type": "node",
  "id": 249426700,
  "lat": -4.6230941,
  "lon": -79.4809027,
  "tags": {
    "gns_classification": "PPL",
    "gns_uni": "-1374618",
    "is_in:country": "Ecuador",
    "is_in:country_code": "EC",
    "is_in:state": "Provincia de Loja",
    "name": "Guarinja",
    "place": "hamlet",
    "source": "GNS"
  }
},
{
  "type": "node",
  "id": 249429149,
  "lat": -4.2112743,
  "lon": -79.2497799,
  "tags": {
    "gns_classification": "PPL",
    "gns_uni": "-1375464",
    "is_in:country": "Ecuador",
    "is_in:country_code": "EC",
    "is_in:state": "Provincia de Loja",
    "name": "La Granja",
    "place": "hamlet",
    "source": "GNS"
  }
},
{
  "type": "node",
  "id": 249429296,
  "lat": -4.9473570,
  "lon": -79.0945584,
  "tags": {
    "name": "La Chonta",
    "place": "village",
    "source": "GNS"
  }
},
{
  "type": "node",
  "id": 249429321,
  "lat": -4.6283936,
  "lon": -79.4645225,
  "tags": {
    "gns_classification": "PPL",
    "is_in:country": "Ecuador",
    "is_in:country_code": "EC",
    "is_in:state": "Provincia de Loja",
    "name": "Jimbura",
    "place": "village",
    "source": "GNS"
  }
},
{
  "type": "node",
  "id": 249429470,
  "lat": -4.1265235,
  "lon": -79.4260727,
  "tags": {
    "gns_classification": "PPL",
    "is_in:country": "Ecuador",
    "is_in:country_code": "EC",
    "is_in:state": "Provincia de Loja",
    "name": "Yunga",
    "place": "hamlet",
    "source": "GNS"
  }
},
{
  "type": "node",
  "id": 249429558,
  "lat": -4.8884363,
  "lon": -78.9935132,
  "tags": {
    "gns_classification": "PPL",
    "gns_uni": "-1375900",
    "is_in:country": "Ecuador",
    "is_in:country_code": "EC",
    "is_in:state": "Provincia de Zamora Chinchipe",
    "name": "Las Tres Aguas",
    "place": "hamlet",
    "source": "GNS"
  }
},
{
  "type": "node",
  "id": 249429642,
  "lat": -4.1338204,
  "lon": -79.3941972,
  "tags": {
    "gns_classification": "PPL",
    "gns_uni": "-1375759",
    "is_in:country": "Ecuador",
    "is_in:country_code": "EC",
    "is_in:state": "Provincia de Loja",
    "name": "Animaspamba",
    "place": "hamlet",
    "source": "GNS"
  }
},
{
  "type": "node",
  "id": 249429760,
  "lat": -4.2333330,
  "lon": -79.3666670,
  "tags": {
    "gns_classification": "PPL",
    "gns_uni": "-1375586",
    "is_in:country": "Ecuador",
    "is_in:country_code": "EC",
    "is_in:state": "Provincia de Loja",
    "name": "Lamedero",
    "place": "village",
    "source": "GNS"
  }
},
{
  "type": "node",
  "id": 249429861,
  "lat": -4.3164605,
  "lon": -78.6661382,
  "tags": {
    "alt_name": "Shaime",
    "name": "Shaim",
    "place": "hamlet",
    "source": "GNS"
  }
},
{
  "type": "node",
  "id": 249596288,
  "lat": -4.2521452,
  "lon": -79.2615380,
  "tags": {
    "name": "Linderos",
    "place": "hamlet",
    "source": "GNS"
  }
},
{
  "type": "node",
  "id": 249596342,
  "lat": -4.6498277,
  "lon": -79.1318589,
  "tags": {
    "gns_classification": "PPL",
    "is_capital": "county",
    "is_in:country": "Ecuador",
    "is_in:country_code": "EC",
    "is_in:state": "Provincia de Zamora Chinchipe",
    "name": "Palanda",
    "place": "village",
    "population": "8873",
    "population:date": "2022",
    "source": "GNS",
    "source:population": "https://www.censoecuador.gob.ec/wp-content/uploads/2024/01/Info_Zamora_Chinchipe.pdf",
    "wikidata": "Q5620584",
    "wikipedia": "es:Palanda"
  }
},
{
  "type": "node",
  "id": 249596343,
  "lat": -4.7254450,
  "lon": -79.1312675,
  "tags": {
    "name": "Palanuma Bajo",
    "place": "hamlet",
    "source": "GNS"
  }
},
{
  "type": "node",
  "id": 249596359,
  "lat": -4.1226359,
  "lon": -78.6297075,
  "tags": {
    "alt_name": "Pachkius",
    "gns_classification": "PPL",
    "gns_uni": "-1377714",
    "is_in:country": "Ecuador",
    "is_in:country_code": "EC",
    "is_in:state": "Provincia de Zamora Chinchipe",
    "name": "Pachicutza",
    "place": "village",
    "source": "GNS"
  }
},
{
  "type": "node",
  "id": 249596678,
  "lat": -4.3742734,
  "lon": -78.6589435,
  "tags": {
    "gns_classification": "PPL",
    "gns_uni": "-1376836",
    "is_in:country": "Ecuador",
    "is_in:country_code": "EC",
    "is_in:state": "Provincia de Zamora Chinchipe",
    "name": "Nuevo Paraiso",
    "place": "village",
    "source": "GNS"
  }
},
{
  "type": "node",
  "id": 249596717,
  "lat": -4.1325772,
  "lon": -79.3730533,
  "tags": {
    "gns_classification": "PPL",
    "gns_uni": "-1376734",
    "is_in:country": "Ecuador",
    "is_in:country_code": "EC",
    "is_in:state": "Provincia de Loja",
    "name": "Matala",
    "place": "hamlet",
    "source": "GNS"
  }
},
{
  "type": "node",
  "id": 249596820,
  "lat": -4.1405651,
  "lon": -79.4294583,
  "tags": {
    "gns_classification": "PPL",
    "is_in:country": "Ecuador",
    "is_in:country_code": "EC",
    "is_in:state": "Provincia de Loja",
    "name": "Nambacola",
    "place": "village",
    "source": "GNS"
  }
},
{
  "type": "node",
  "id": 249596915,
  "lat": -4.2269414,
  "lon": -79.2250663,
  "tags": {
    "name": "Naranjo",
    "place": "hamlet",
    "source": "GNS"
  }
},
{
  "type": "node",
  "id": 249597030,
  "lat": -4.2103640,
  "lon": -79.3733239,
  "tags": {
    "gns_classification": "PPL",
    "is_in:country": "Ecuador",
    "is_in:country_code": "EC",
    "is_in:state": "Provincia de Loja",
    "name": "Purunuma",
    "place": "village",
    "source": "GNS"
  }
},
{
  "type": "node",
  "id": 249597065,
  "lat": -4.2971550,
  "lon": -79.4012650,
  "tags": {
    "gns_classification": "PPL",
    "is_capital": "county",
    "is_in:country": "Ecuador",
    "is_in:country_code": "EC",
    "is_in:state": "Provincia de Loja",
    "name": "Quilanga",
    "place": "village",
    "population": "2721",
    "population:date": "2010",
    "source": "GNS"
  }
},
{
  "type": "node",
  "id": 249597110,
  "lat": -4.4781566,
  "lon": -79.0944471,
  "tags": {
    "gns_classification": "PPL",
    "gns_uni": "-1379446",
    "is_in:country": "Ecuador",
    "is_in:country_code": "EC",
    "is_in:state": "Provincia de Zamora Chinchipe",
    "name": "Quebrada Onda",
    "place": "hamlet",
    "source": "GNS"
  }
},
{
  "type": "node",
  "id": 249597698,
  "lat": -4.9452190,
  "lon": -79.1168623,
  "tags": {
    "name": "Pucapamba",
    "place": "hamlet",
    "source": "GNS"
  }
},
{
  "type": "node",
  "id": 249598693,
  "lat": -4.1678012,
  "lon": -79.2149718,
  "tags": {
    "gns_classification": "PPL",
    "gns_uni": "-1380940",
    "is_in:country": "Ecuador",
    "is_in:country_code": "EC",
    "is_in:state": "Provincia de Loja",
    "name": "Santa Gertrudis",
    "place": "hamlet",
    "source": "GNS"
  }
},
{
  "type": "node",
  "id": 249598706,
  "lat": -4.6540218,
  "lon": -79.0289759,
  "tags": {
    "gns_classification": "PPL",
    "is_in:country": "Ecuador",
    "is_in:country_code": "EC",
    "is_in:state": "Provincia de Zamora Chinchipe",
    "name": "Santa Clara del Vergel",
    "place": "village",
    "source": "GNS"
  }
},
{
  "type": "node",
  "id": 249598734,
  "lat": -4.2298584,
  "lon": -79.2721296,
  "tags": {
    "gns_classification": "PPL",
    "gns_uni": "-1380859",
    "is_in:country": "Ecuador",
    "is_in:country_code": "EC",
    "is_in:state": "Provincia de Loja",
    "name": "Santa Ana",
    "place": "hamlet",
    "source": "GNS"
  }
},
{
  "type": "node",
  "id": 249598790,
  "lat": -4.2743567,
  "lon": -79.1947188,
  "tags": {
    "name": "Yamballa",
    "place": "hamlet",
    "source": "GNS"
  }
},
{
  "type": "node",
  "id": 249598957,
  "lat": -4.6004605,
  "lon": -79.4510084,
  "tags": {
    "gns_classification": "PPL",
    "gns_uni": "-1380009",
    "is_in:country": "Ecuador",
    "is_in:country_code": "EC",
    "is_in:state": "Provincia de Loja",
    "name": "Sanambay",
    "place": "hamlet",
    "source": "GNS"
  }
},
{
  "type": "node",
  "id": 249599035,
  "lat": -4.2179314,
  "lon": -79.2721228,
  "tags": {
    "name": "Trinidad",
    "place": "village",
    "source": "GNS"
  }
},
{
  "type": "node",
  "id": 249599036,
  "lat": -4.0676689,
  "lon": -79.4969694,
  "tags": {
    "gns_classification": "PPL",
    "gns_uni": "-1380436",
    "is_in:country": "Ecuador",
    "is_in:country_code": "EC",
    "is_in:state": "Provincia de Loja",
    "name": "San Jose",
    "place": "hamlet",
    "source": "GNS"
  }
},
{
  "type": "node",
  "id": 249599135,
  "lat": -4.5015293,
  "lon": -79.4672785,
  "tags": {
    "gns_classification": "PPL",
    "is_in:country": "Ecuador",
    "is_in:country_code": "EC",
    "is_in:state": "Provincia de Loja",
    "name": "Jibiruche",
    "place": "village",
    "source": "GNS"
  }
},
{
  "type": "node",
  "id": 249599180,
  "lat": -4.2181245,
  "lon": -79.2424819,
  "tags": {
    "gns_classification": "PPL",
    "gns_uni": "-1381966",
    "is_in:country": "Ecuador",
    "is_in:country_code": "EC",
    "is_in:state": "Provincia de Loja",
    "name": "Taxiche",
    "place": "village",
    "source": "GNS"
  }
},
{
  "type": "node",
  "id": 249599266,
  "lat": -4.8710831,
  "lon": -79.1397877,
  "tags": {
    "gns_classification": "PPL",
    "gns_uni": "-1382056",
    "is_in:country": "Ecuador",
    "is_in:country_code": "EC",
    "is_in:state": "Provincia de Zamora Chinchipe",
    "name": "Guadual",
    "place": "hamlet",
    "source": "GNS"
  }
},
{
  "type": "node",
  "id": 249599321,
  "lat": -4.5471202,
  "lon": -79.0344411,
  "tags": {
    "gns_classification": "PPL",
    "gns_uni": "-1381880",
    "is_in:country": "Ecuador",
    "is_in:country_code": "EC",
    "is_in:state": "Provincia de Zamora Chinchipe",
    "name": "El Porvenir del Carmen",
    "place": "village",
    "source": "GNS"
  }
},
{
  "type": "node",
  "id": 249599386,
  "lat": -4.3975192,
  "lon": -79.1587818,
  "tags": {
    "gns_classification": "PPL",
    "gns_uni": "-1381858",
    "is_in:country": "Ecuador",
    "is_in:country_code": "EC",
    "is_in:state": "Provincia de Loja",
    "name": "Cachiyacu",
    "place": "hamlet",
    "source": "GNS"
  }
},
{
  "type": "node",
  "id": 249599739,
  "lat": -4.5710999,
  "lon": -79.4106110,
  "tags": {
    "gns_classification": "PPL",
    "gns_uni": "-1381111",
    "is_in:country": "Ecuador",
    "is_in:country_code": "EC",
    "is_in:state": "Provincia de Loja",
    "name": "Santa Teresita",
    "place": "village",
    "source": "GNS"
  }
},
{
  "type": "node",
  "id": 249599813,
  "lat": -4.6159397,
  "lon": -79.0152329,
  "tags": {
    "gns_classification": "PPL",
    "gns_uni": "-1381570",
    "is_in:country": "Ecuador",
    "is_in:country_code": "EC",
    "is_in:state": "Provincia de Zamora Chinchipe",
    "name": "Sitio Palmar",
    "place": "hamlet",
    "source": "GNS"
  }
},
{
  "type": "node",
  "id": 249600079,
  "lat": -4.5419440,
  "lon": -78.6622220,
  "tags": {
    "fixme": "position",
    "gns_classification": "PPL",
    "gns_uni": "390247",
    "is_in:country": "Ecuador",
    "is_in:country_code": "EC",
    "is_in:state": "Provincia de Zamora Chinchipe",
    "name": "Campamento La Hambruna",
    "place": "isolated_dwelling",
    "source": "GNS"
  }
},
{
  "type": "node",
  "id": 249600081,
  "lat": -4.5233330,
  "lon": -78.6577780,
  "tags": {
    "fixme": "position",
    "gns_classification": "PPL",
    "gns_uni": "390245",
    "is_in:country": "Ecuador",
    "is_in:country_code": "EC",
    "is_in:state": "Provincia de Zamora Chinchipe",
    "name": "Campamento Ruiseñor",
    "place": "isolated_dwelling",
    "source": "GNS"
  }
},
{
  "type": "node",
  "id": 249600154,
  "lat": -4.1020738,
  "lon": -78.6650760,
  "tags": {
    "name": "Zurmi",
    "place": "village",
    "source": "GNS"
  }
},
{
  "type": "node",
  "id": 249600156,
  "lat": -4.1630845,
  "lon": -78.6441203,
  "tags": {
    "name": "La Wantza",
    "place": "hamlet",
    "source": "GNS"
  }
},
{
  "type": "node",
  "id": 249600159,
  "lat": -4.1162344,
  "lon": -78.9389682,
  "tags": {
    "gns_classification": "PPL",
    "gns_uni": "175849",
    "is_in:country": "Ecuador",
    "is_in:country_code": "EC",
    "is_in:state": "Provincia de Zamora Chinchipe",
    "name": "Sakantza",
    "place": "hamlet",
    "source": "GNS"
  }
},
{
  "type": "node",
  "id": 249600160,
  "lat": -4.1307105,
  "lon": -78.9411048,
  "tags": {
    "gns_classification": "PPL",
    "gns_uni": "175848",
    "is_in:country": "Ecuador",
    "is_in:country_code": "EC",
    "is_in:state": "Provincia de Zamora Chinchipe",
    "name": "La Pituca",
    "place": "hamlet",
    "source": "GNS"
  }
},
{
  "type": "node",
  "id": 249600166,
  "lat": -4.0387150,
  "lon": -78.6389977,
  "tags": {
    "alt_name": "Kenkuim",
    "gns_classification": "PPL",
    "gns_uni": "175418",
    "is_in:country": "Ecuador",
    "is_in:country_code": "EC",
    "is_in:state": "Provincia de Zamora Chinchipe",
    "name": "Congüime",
    "place": "hamlet",
    "source": "GNS"
  }
},
{
  "type": "node",
  "id": 249600167,
  "lat": -4.0469032,
  "lon": -78.9251194,
  "tags": {
    "gns_classification": "PPL",
    "gns_uni": "175891",
    "is_in:country": "Ecuador",
    "is_in:country_code": "EC",
    "is_in:state": "Provincia de Zamora Chinchipe",
    "name": "La Chorrera",
    "place": "neighbourhood",
    "source": "GNS"
  }
},
{
  "type": "node",
  "id": 249600172,
  "lat": -4.0155540,
  "lon": -78.8707054,
  "tags": {
    "name": "Cutuntza",
    "place": "hamlet",
    "source": "GNS"
  }
},
{
  "type": "node",
  "id": 249600173,
  "lat": -4.0491611,
  "lon": -78.9211463,
  "tags": {
    "gns_classification": "PPL",
    "gns_uni": "175892",
    "is_in:country": "Ecuador",
    "is_in:country_code": "EC",
    "is_in:state": "Provincia de Zamora Chinchipe",
    "name": "Tunantza Bajo",
    "place": "village",
    "source": "GNS"
  }
},
{
  "type": "node",
  "id": 249600174,
  "lat": -4.0433330,
  "lon": -78.9044440,
  "tags": {
    "gns_classification": "PPL",
    "gns_uni": "175895",
    "is_in:country": "Ecuador",
    "is_in:country_code": "EC",
    "is_in:state": "Provincia de Zamora Chinchipe",
    "name": "Timbara Alto",
    "place": "village",
    "source": "GNS"
  }
},
{
  "type": "node",
  "id": 249600175,
  "lat": -4.1105041,
  "lon": -78.9437376,
  "tags": {
    "gns_classification": "PPL",
    "gns_uni": "175906",
    "is_in:country": "Ecuador",
    "is_in:country_code": "EC",
    "is_in:state": "Provincia de Zamora Chinchipe",
    "name": "Jambue Alto",
    "place": "hamlet",
    "source": "GNS"
  }
},
{
  "type": "node",
  "id": 249600176,
  "lat": -4.0637299,
  "lon": -78.8841945,
  "tags": {
    "gns_classification": "PPL",
    "gns_uni": "175914",
    "is_in:country": "Ecuador",
    "is_in:country_code": "EC",
    "is_in:state": "Provincia de Zamora Chinchipe",
    "name": "Tunantza Alto",
    "place": "village",
    "source": "GNS"
  }
},
{
  "type": "node",
  "id": 249600177,
  "lat": -4.0161981,
  "lon": -78.8100414,
  "tags": {
    "name": "Cumay",
    "place": "hamlet",
    "source": "GNS"
  }
},
{
  "type": "node",
  "id": 249600178,
  "lat": -4.0924542,
  "lon": -78.9417087,
  "tags": {
    "gns_classification": "PPL",
    "gns_uni": "175903",
    "is_in:country": "Ecuador",
    "is_in:country_code": "EC",
    "is_in:state": "Provincia de Zamora Chinchipe",
    "name": "Jambue Bajo",
    "place": "hamlet",
    "source": "GNS"
  }
},
{
  "type": "node",
  "id": 249600332,
  "lat": -4.0669323,
  "lon": -78.9565614,
  "tags": {
    "capital": "4",
    "ele": "970",
    "gns_classification": "PPL",
    "is_capital": "state",
    "name": "Zamora",
    "place": "town",
    "source": "GNS",
    "wikidata": "Q2283736"
  }
},
{
  "type": "node",
  "id": 249600371,
  "lat": -4.3195443,
  "lon": -79.2347185,
  "tags": {
    "name": "Quinara",
    "place": "village",
    "source": "GNS"
  }
},
{
  "type": "node",
  "id": 249600433,
  "lat": -4.3649010,
  "lon": -79.1768894,
  "tags": {
    "gns_classification": "PPL",
    "is_in:country": "Ecuador",
    "is_in:country_code": "EC",
    "is_in:state": "Provincia de Loja",
    "name": "Yangana",
    "place": "village",
    "population": "2000",
    "source": "GNS"
  }
},
{
  "type": "node",
  "id": 249600594,
  "lat": -4.5512692,
  "lon": -79.1323008,
  "tags": {
    "gns_classification": "PPL",
    "is_in:country": "Ecuador",
    "is_in:country_code": "EC",
    "is_in:state": "Provincia de Zamora Chinchipe",
    "name": "Valladolid",
    "place": "village",
    "source": "GNS"
  }
},
{
  "type": "node",
  "id": 272378756,
  "lat": -7.1566682,
  "lon": -78.5173060,
  "tags": {
    "capital": "4",
    "ele": "2722",
    "name": "Cajamarca",
    "name:de": "Cajamarca",
    "name:en": "Cajamarca",
    "name:es": "Cajamarca",
    "name:pl": "Cajamarca",
    "name:ru": "Кахамарка",
    "name:uk": "Кахамарка",
    "place": "city",
    "population": "201329",
    "population:date": "2017",
    "source:population": "INEI",
    "wikidata": "Q205119",
    "wikipedia": "es:Cajamarca"
  }
},
{
  "type": "node",
  "id": 278074020,
  "lat": -5.7086087,
  "lon": -78.8075898,
  "tags": {
    "capital": "6",
    "ele": "731",
    "name": "Jaén",
    "place": "city",
    "population": "80553",
    "population:date": "2017",
    "source": "MTC",
    "source:population": "INEI",
    "wikidata": "Q1229885"
  }
},
{
  "type": "node",
  "id": 278074108,
  "lat": -5.6390867,
  "lon": -78.5317246,
  "tags": {
    "capital": "6",
    "ele": "419",
    "name": "Bagua",
    "place": "town",
    "population": "24224",
    "population:date": "2017",
    "source:population": "INEI",
    "wikidata": "Q800155",
    "wikipedia": "es:Bagua (ciudad)",
    "wikipedia:en": "Bagua, Peru"
  }
},
{
  "type": "node",
  "id": 290011342,
  "lat": -6.6796418,
  "lon": -78.5192859,
  "tags": {
    "capital": "6",
    "ele": "2532",
    "name": "Bambamarca",
    "place": "town",
    "population": "16039",
    "population:date": "2017",
    "source:population": "INEI",
    "wikidata": "Q3348274",
    "wikipedia": "es:Bambamarca"
  }
},
{
  "type": "node",
  "id": 290011452,
  "lat": -6.5614680,
  "lon": -78.6501767,
  "tags": {
    "capital": "6",
    "ele": "2394",
    "name": "Chota",
    "place": "town",
    "population": "22159",
    "population:date": "2017",
    "source:population": "INEI",
    "wikidata": "Q2964558",
    "wikipedia": "es:Chota",
    "wikipedia:en": "Chota,_Peru"
  }
},
{
  "type": "node",
  "id": 290012144,
  "lat": -6.7643120,
  "lon": -78.6069748,
  "tags": {
    "capital": "8",
    "ele": "3507",
    "name": "Hualgayoc",
    "place": "town",
    "population": "3101",
    "population:date": "2017",
    "source:population": "INEI"
  }
},
{
  "type": "node",
  "id": 290013122,
  "lat": -5.8262269,
  "lon": -77.9691875,
  "tags": {
    "alt_name": "Pomacochas",
    "capital": "8",
    "ele": "2245",
    "name": "Florida",
    "place": "village",
    "wikidata": "Q27194453",
    "wikipedia": "es:Pomacochas"
  }
},
{
  "type": "node",
  "id": 292909409,
  "lat": -7.2531814,
  "lon": -79.1307899,
  "tags": {
    "capital": "8",
    "ele": "439",
    "name": "Tembladera",
    "place": "town",
    "population": "3238",
    "population:date": "2017",
    "source:population": "INEI",
    "wikidata": "Q13190929",
    "wikipedia": "es:Tembladera (Perú)"
  }
},
{
  "type": "node",
  "id": 292915738,
  "lat": -6.3774515,
  "lon": -78.8181649,
  "tags": {
    "capital": "6",
    "ele": "2647",
    "name": "Cutervo",
    "place": "town",
    "population": "21220",
    "population:date": "2017",
    "source:population": "INEI",
    "wikidata": "Q3348263",
    "wikipedia": "es:Cutervo",
    "wikipedia:en": "Cutervo"
  }
},
{
  "type": "node",
  "id": 340125505,
  "lat": -5.7542160,
  "lon": -78.4421686,
  "tags": {
    "alt_name": "Pueblo Viejo",
    "capital": "6",
    "ele": "444",
    "name": "Bagua Grande",
    "place": "town",
    "population": "32519",
    "population:date": "2017",
    "source:population": "INEI",
    "website": "http://www.muniutcubamba.gob.pe/",
    "wikidata": "Q793765",
    "wikipedia": "es:Bagua Grande",
    "wikipedia:en": "Bagua Grande"
  }
},
{
  "type": "node",
  "id": 340140307,
  "lat": -6.2293182,
  "lon": -77.8714631,
  "tags": {
    "capital": "4",
    "ele": "2338",
    "name": "Chachapoyas",
    "name:de": "Chachapoyas",
    "name:en": "Chachapoyas",
    "name:es": "Chachapoyas",
    "name:pl": "Chachapoyas",
    "name:ru": "Чачапояс",
    "name:uk": "Чачапояс",
    "place": "town",
    "population": "32026",
    "population:date": "2017",
    "source:population": "INEI",
    "wikidata": "Q757133",
    "wikipedia": "es:Chachapoyas (Perú)"
  }
},
{
  "type": "node",
  "id": 411804006,
  "lat": -6.0627128,
  "lon": -77.1677322,
  "tags": {
    "capital": "6",
    "ele": "844",
    "name": "Rioja",
    "name:es": "Rioja",
    "place": "town",
    "population": "24263",
    "start_date": "1782",
    "wikidata": "Q3344069",
    "wikipedia": "es:Rioja (Perú)"
  }
},
{
  "type": "node",
  "id": 411805546,
  "lat": -5.8759426,
  "lon": -77.1215144,
  "tags": {
    "name": "Pueblo Libre",
    "place": "town",
    "population": "2785",
    "population:date": "2017",
    "source:population": "INEI"
  }
},
{
  "type": "node",
  "id": 411805820,
  "lat": -5.9753278,
  "lon": -77.0198820,
  "tags": {
    "capital": "8",
    "ele": "839",
    "name": "Yantalo",
    "place": "village"
  }
},
{
  "type": "node",
  "id": 411805891,
  "lat": -6.0295376,
  "lon": -77.0666940,
  "tags": {
    "capital": "8",
    "ele": "855",
    "name": "Calzada",
    "place": "town",
    "population": "3550",
    "population:date": "2017",
    "source:population": "INEI"
  }
},
{
  "type": "node",
  "id": 411806194,
  "lat": -5.9407861,
  "lon": -77.3092386,
  "tags": {
    "capital": "8",
    "ele": "869",
    "name": "Nueva Cajamarca",
    "place": "town",
    "population": "25812",
    "population:date": "2017",
    "source:population": "INEI",
    "wikidata": "Q27194585",
    "wikipedia": "es:Nueva Cajamarca"
  }
},
{
  "type": "node",
  "id": 411806218,
  "lat": -5.9883714,
  "lon": -77.2784560,
  "tags": {
    "alt_name": "Azunguillo",
    "capital": "8",
    "ele": "824",
    "name": "Segunda Jerusalén",
    "place": "town",
    "population": "14884",
    "population:date": "2017",
    "source:population": "INEI",
    "wikidata": "Q27171325"
  }
},
{
  "type": "node",
  "id": 411812204,
  "lat": -6.1392924,
  "lon": -77.1021623,
  "tags": {
    "capital": "8",
    "ele": "886",
    "name": "Soritor",
    "place": "town",
    "population": "14310",
    "population:date": "2017",
    "source:population": "INEI",
    "wikidata": "Q27194589",
    "wikipedia": "es:Soritor"
  }
},
{
  "type": "node",
  "id": 419732360,
  "lat": -4.6723546,
  "lon": -79.1289442,
  "tags": {
    "name": "Tollizos",
    "place": "hamlet"
  }
},
{
  "type": "node",
  "id": 431051491,
  "lat": -4.0800242,
  "lon": -78.6413305,
  "tags": {
    "fixme": "Falta corregir calles",
    "is_in:country": "Ecuador",
    "is_in:state": "Provincia de Zamora Chinchipe",
    "name": "Santa Elena",
    "name:jiv": "Tsarunts",
    "place": "village"
  }
},
{
  "type": "node",
  "id": 431060390,
  "lat": -4.2147434,
  "lon": -78.9390738,
  "tags": {
    "is_in": "Provincia de Zamora Chinchipe",
    "name": "Romerillos Alto",
    "place": "hamlet"
  }
},
{
  "type": "node",
  "id": 483557650,
  "lat": -5.1459194,
  "lon": -79.0036525,
  "tags": {
    "capital": "6",
    "ele": "1281",
    "name": "San Ignacio",
    "place": "town",
    "population": "13219",
    "population:date": "2017",
    "source:population": "INEI",
    "wikidata": "Q11011907",
    "wikipedia": "es:San Ignacio de la Frontera"
  }
},
{
  "type": "node",
  "id": 485980083,
  "lat": -4.9768376,
  "lon": -79.1151223,
  "tags": {
    "name": "La Balsa",
    "place": "hamlet"
  }
},
{
  "type": "node",
  "id": 504920196,
  "lat": -4.5937559,
  "lon": -77.8659572,
  "tags": {
    "capital": "6",
    "ele": "189",
    "name": "Santa María de Nieva",
    "place": "village",
    "wikidata": "Q3347407",
    "wikipedia": "es:Santa María de Nieva (Condorcanqui)",
    "wikipedia:fr": "Santa María de Nieva"
  }
},
{
  "type": "node",
  "id": 504931160,
  "lat": -5.1601710,
  "lon": -78.2869148,
  "tags": {
    "capital": "8",
    "ele": "303",
    "name": "Chiriaco",
    "place": "village",
    "wikidata": "Q11963566"
  }
},
{
  "type": "node",
  "id": 557177985,
  "lat": -5.9306085,
  "lon": -77.2262651,
  "tags": {
    "capital": "8",
    "ele": "816",
    "name": "Yuracyacu",
    "place": "village"
  }
},
{
  "type": "node",
  "id": 557186356,
  "lat": -6.0817056,
  "lon": -77.0895207,
  "tags": {
    "capital": "8",
    "ele": "841",
    "name": "Habana",
    "place": "village"
  }
},
{
  "type": "node",
  "id": 557341902,
  "lat": -6.1032060,
  "lon": -77.0137885,
  "tags": {
    "name": "Alfarillo",
    "place": "hamlet"
  }
},
{
  "type": "node",
  "id": 557342151,
  "lat": -5.9182443,
  "lon": -77.0795634,
  "tags": {
    "name": "Buenos Aires",
    "place": "village"
  }
},
{
  "type": "node",
  "id": 557367172,
  "lat": -5.9291720,
  "lon": -77.0152762,
  "tags": {
    "name": "Los Angeles",
    "place": "village"
  }
},
{
  "type": "node",
  "id": 557367571,
  "lat": -5.9589887,
  "lon": -77.0033823,
  "tags": {
    "name": "Guillermo",
    "place": "hamlet"
  }
},
{
  "type": "node",
  "id": 558399713,
  "lat": -5.8750107,
  "lon": -77.1854723,
  "tags": {
    "name": "Valle de la Conquista",
    "place": "village"
  }
},
{
  "type": "node",
  "id": 558399715,
  "lat": -5.8848443,
  "lon": -77.0827445,
  "tags": {
    "name": "Alan García",
    "place": "hamlet"
  }
},
{
  "type": "node",
  "id": 558399723,
  "lat": -6.0455617,
  "lon": -77.0154568,
  "tags": {
    "name": "San José del Morro",
    "place": "hamlet"
  }
},
{
  "type": "node",
  "id": 558399726,
  "lat": -6.0892077,
  "lon": -77.0214443,
  "tags": {
    "name": "Naranjillo",
    "place": "hamlet"
  }
},
{
  "type": "node",
  "id": 558416713,
  "lat": -6.1389700,
  "lon": -77.1441707,
  "tags": {
    "capital": "8",
    "ele": "887",
    "name": "Yorongos",
    "place": "village"
  }
},
{
  "type": "node",
  "id": 558416716,
  "lat": -6.1502249,
  "lon": -77.0390250,
  "tags": {
    "name": "Jerico",
    "place": "hamlet"
  }
},
{
  "type": "node",
  "id": 558416718,
  "lat": -6.1232205,
  "lon": -77.0061992,
  "tags": {
    "name": "Ochame",
    "place": "hamlet"
  }
},
{
  "type": "node",
  "id": 558416721,
  "lat": -6.1849641,
  "lon": -77.1331593,
  "tags": {
    "name": "La Florida",
    "place": "hamlet"
  }
},
{
  "type": "node",
  "id": 558416724,
  "lat": -6.1867222,
  "lon": -77.1011833,
  "tags": {
    "name": "San Lorenzo",
    "place": "hamlet"
  }
},
{
  "type": "node",
  "id": 558416728,
  "lat": -6.2023197,
  "lon": -77.1138073,
  "tags": {
    "name": "Nueva Esperanza",
    "place": "hamlet"
  }
},
{
  "type": "node",
  "id": 558416732,
  "lat": -6.1996544,
  "lon": -77.1287636,
  "tags": {
    "name": "Nuevo Tabalosos",
    "place": "hamlet"
  }
},
{
  "type": "node",
  "id": 558416736,
  "lat": -6.2079932,
  "lon": -77.1561998,
  "tags": {
    "name": "Belén",
    "place": "hamlet"
  }
},
{
  "type": "node",
  "id": 558416739,
  "lat": -6.2190133,
  "lon": -77.1181142,
  "tags": {
    "name": "San Marcos",
    "place": "village"
  }
},
{
  "type": "node",
  "id": 558416743,
  "lat": -6.2554236,
  "lon": -77.1133885,
  "tags": {
    "name": "Nuevo Horizonte",
    "place": "village"
  }
},
{
  "type": "node",
  "id": 558442024,
  "lat": -5.9701681,
  "lon": -77.0526752,
  "tags": {
    "name": "Nuevo San Ignacio",
    "place": "hamlet"
  }
},
{
  "type": "node",
  "id": 558442026,
  "lat": -5.9652566,
  "lon": -77.0654542,
  "tags": {
    "name": "Pasamayo",
    "place": "hamlet"
  }
},
{
  "type": "node",
  "id": 558442028,
  "lat": -5.9728242,
  "lon": -77.0898987,
  "tags": {
    "name": "Pajonal",
    "place": "hamlet"
  }
},
{
  "type": "node",
  "id": 558442030,
  "lat": -5.9366003,
  "lon": -77.0318445,
  "tags": {
    "name": "Sapote",
    "place": "hamlet"
  }
},
{
  "type": "node",
  "id": 558442033,
  "lat": -5.9331268,
  "lon": -77.0508102,
  "tags": {
    "name": "Gobernador",
    "place": "hamlet"
  }
},
{
  "type": "node",
  "id": 558442035,
  "lat": -5.9076192,
  "lon": -77.0199470,
  "tags": {
    "name": "Las Malvinas",
    "place": "village"
  }
},
{
  "type": "node",
  "id": 558442038,
  "lat": -5.9055478,
  "lon": -77.0393541,
  "tags": {
    "name": "Caña Brava",
    "place": "village"
  }
},
{
  "type": "node",
  "id": 558442040,
  "lat": -5.8889045,
  "lon": -77.0433540,
  "tags": {
    "alt_name": "Miraflores de Alto Mayo",
    "name": "Miraflores Alto",
    "place": "village"
  }
},
{
  "type": "node",
  "id": 558442042,
  "lat": -5.8813917,
  "lon": -77.1030186,
  "tags": {
    "name": "La Libertad",
    "place": "hamlet"
  }
},
{
  "type": "node",
  "id": 558442045,
  "lat": -5.9104125,
  "lon": -77.1158681,
  "tags": {
    "name": "Tingana",
    "place": "hamlet"
  }
},
{
  "type": "node",
  "id": 558442048,
  "lat": -5.9482916,
  "lon": -77.1336541,
  "tags": {
    "name": "El Edén",
    "place": "hamlet"
  }
},
{
  "type": "node",
  "id": 558442050,
  "lat": -5.9667798,
  "lon": -77.1345747,
  "tags": {
    "name": "Santa Rosa",
    "place": "hamlet"
  }
},
{
  "type": "node",
  "id": 558442053,
  "lat": -5.9845341,
  "lon": -77.1924787,
  "tags": {
    "name": "Santa Elena",
    "place": "hamlet"
  }
},
{
  "type": "node",
  "id": 558442055,
  "lat": -5.9900481,
  "lon": -77.2131359,
  "tags": {
    "name": "Tambo",
    "place": "hamlet"
  }
},
{
  "type": "node",
  "id": 558442061,
  "lat": -6.0096488,
  "lon": -77.2520081,
  "tags": {
    "name": "Porvenir",
    "place": "village"
  }
},
{
  "type": "node",
  "id": 558442064,
  "lat": -5.9441589,
  "lon": -77.2825063,
  "tags": {
    "name": "Ucrania",
    "place": "village"
  }
},
{
  "type": "node",
  "id": 558442068,
  "lat": -5.9007660,
  "lon": -77.2459851,
  "tags": {
    "name": "Río Seco",
    "place": "hamlet"
  }
},
{
  "type": "node",
  "id": 558442070,
  "lat": -5.9029585,
  "lon": -77.2706361,
  "tags": {
    "capital": "8",
    "ele": "824",
    "name": "San Fernando",
    "place": "village"
  }
},
{
  "type": "node",
  "id": 558442073,
  "lat": -5.8851428,
  "lon": -77.2310902,
  "tags": {
    "name": "El Espino",
    "place": "hamlet"
  }
},
{
  "type": "node",
  "id": 558442075,
  "lat": -5.8642839,
  "lon": -77.3440328,
  "tags": {
    "alt_name": "San Juan del Río Soritor",
    "name": "San Juan",
    "place": "village"
  }
},
{
  "type": "node",
  "id": 558442077,
  "lat": -6.0418991,
  "lon": -77.1315740,
  "tags": {
    "name": "San Juan de Tangumi",
    "place": "village"
  }
},
{
  "type": "node",
  "id": 631383703,
  "lat": -6.5160387,
  "lon": -77.4455838,
  "tags": {
    "capital": "8",
    "ele": "1651",
    "name": "Chirimoto",
    "place": "village"
  }
},
{
  "type": "node",
  "id": 631383704,
  "lat": -6.4986968,
  "lon": -77.4400442,
  "tags": {
    "capital": "8",
    "ele": "1668",
    "name": "Milpuc",
    "place": "village"
  }
},
{
  "type": "node",
  "id": 631383705,
  "lat": -6.4927301,
  "lon": -77.4719348,
  "tags": {
    "capital": "8",
    "ele": "1659",
    "name": "Totora",
    "place": "village"
  }
},
{
  "type": "node",
  "id": 631383706,
  "lat": -6.5229240,
  "lon": -77.4226628,
  "tags": {
    "is_in": "Rodriguez de Mendoza",
    "name": "Achamal",
    "place": "village"
  }
},
{
  "type": "node",
  "id": 631383707,
  "lat": -6.4678862,
  "lon": -77.3958835,
  "tags": {
    "capital": "8",
    "ele": "1365",
    "name": "Omia",
    "place": "village"
  }
},
{
  "type": "node",
  "id": 631383708,
  "lat": -6.4980570,
  "lon": -77.4985751,
  "tags": {
    "capital": "8",
    "ele": "1673",
    "name": "Limabamba",
    "place": "village"
  }
},
{
  "type": "node",
  "id": 631393016,
  "lat": -6.4327478,
  "lon": -77.5694355,
  "tags": {
    "name": "Yuracyacu",
    "place": "village"
  }
},
{
  "type": "node",
  "id": 631393017,
  "lat": -6.3854681,
  "lon": -77.5462390,
  "tags": {
    "alt_name": "Ayña",
    "capital": "8",
    "ele": "1581",
    "name": "Longar",
    "place": "village"
  }
},
{
  "type": "node",
  "id": 631393018,
  "lat": -6.4088881,
  "lon": -77.5775042,
  "tags": {
    "capital": "8",
    "ele": "1584",
    "name": "Cochamal",
    "place": "village"
  }
},
{
  "type": "node",
  "id": 631393020,
  "lat": -6.3781595,
  "lon": -77.5222693,
  "tags": {
    "name": "Michina",
    "place": "hamlet"
  }
},
{
  "type": "node",
  "id": 631393021,
  "lat": -6.3866552,
  "lon": -77.5039959,
  "tags": {
    "alt_name": "Callejón",
    "capital": "8",
    "ele": "1585",
    "name": "Mariscal Benavides",
    "place": "village",
    "population": "1012",
    "population:date": "2017",
    "source:population": "INEI"
  }
},
{
  "type": "node",
  "id": 631393027,
  "lat": -6.4796024,
  "lon": -77.3677311,
  "tags": {
    "name": "Tocuya",
    "place": "hamlet"
  }
},
{
  "type": "node",
  "id": 631393029,
  "lat": -5.9459738,
  "lon": -77.9779289,
  "tags": {
    "capital": "8",
    "ele": "1307",
    "name": "Pedro Ruiz Gallo",
    "place": "village",
    "wikidata": "Q27194454",
    "wikipedia": "es:Pedro Ruiz Gallo (Amazonas)"
  }
},
{
  "type": "node",
  "id": 631393034,
  "lat": -6.4531491,
  "lon": -77.4553291,
  "tags": {
    "alt_name": "Santa Rosa del Buensuceso",
    "capital": "8",
    "ele": "1759",
    "name": "Santa Rosa",
    "place": "village"
  }
},
{
  "type": "node",
  "id": 631393035,
  "lat": -6.4289457,
  "lon": -77.5378361,
  "tags": {
    "capital": "8",
    "ele": "1698",
    "name": "Huambo",
    "place": "village"
  }
},
{
  "type": "node",
  "id": 631418509,
  "lat": -6.3726216,
  "lon": -77.9019150,
  "tags": {
    "capital": "8",
    "ele": "1876",
    "name": "Magdalena",
    "place": "village",
    "wikidata": "Q1883772"
  }
},
{
  "type": "node",
  "id": 631418510,
  "lat": -6.3731571,
  "lon": -77.9100833,
  "tags": {
    "capital": "8",
    "ele": "1969",
    "name": "Nuevo Tingo",
    "place": "village",
    "wikidata": "Q2435750",
    "wikipedia": "es:Tingo"
  }
},
{
  "type": "node",
  "id": 631418511,
  "lat": -6.7079646,
  "lon": -77.8043876,
  "tags": {
    "alt_name": "Raymipampa",
    "capital": "8",
    "ele": "2210",
    "name": "Leymebamba",
    "name:de": "Leimebamba",
    "place": "village",
    "wikidata": "Q1475798",
    "wikipedia": "es:Leimebamba"
  }
},
{
  "type": "node",
  "id": 631418512,
  "lat": -6.2417652,
  "lon": -77.5774084,
  "tags": {
    "name": "Puma Armana",
    "place": "hamlet"
  }
},
{
  "type": "node",
  "id": 633523780,
  "lat": -6.5707055,
  "lon": -77.8267239,
  "tags": {
    "name": "Yerbabuena",
    "place": "village"
  }
},
{
  "type": "node",
  "id": 633523893,
  "lat": -6.4293408,
  "lon": -77.9603576,
  "tags": {
    "capital": "8",
    "ele": "2744",
    "name": "María",
    "place": "village",
    "wikidata": "Q13190028"
  }
},
{
  "type": "node",
  "id": 633524807,
  "lat": -6.1646317,
  "lon": -77.9445731,
  "tags": {
    "capital": "8",
    "ele": "2313",
    "name": "Luya",
    "place": "village",
    "wikidata": "Q13189994",
    "wikipedia": "es:Luya"
  }
},
{
  "type": "node",
  "id": 635174902,
  "lat": -6.5102941,
  "lon": -77.8492943,
  "tags": {
    "name": "Ubilon",
    "place": "hamlet"
  }
},
{
  "type": "node",
  "id": 635175289,
  "lat": -6.4786976,
  "lon": -77.8607494,
  "tags": {
    "name": "Zuta",
    "place": "hamlet"
  }
},
{
  "type": "node",
  "id": 635176107,
  "lat": -6.0581067,
  "lon": -77.8949713,
  "tags": {
    "name": "Cocachimba",
    "place": "hamlet"
  }
},
{
  "type": "node",
  "id": 676412520,
  "lat": -4.0325415,
  "lon": -79.2039904,
  "tags": {
    "admin_level": "9",
    "is_in": "Sucre",
    "name": "Barrio La Argelia",
    "place": "neighbourhood"
  }
},
{
  "type": "node",
  "id": 676412670,
  "lat": -4.0303718,
  "lon": -79.2030858,
  "tags": {
    "admin_level": "9",
    "is_in": "Sucre",
    "name": "Barrio San Isidro",
    "place": "neighbourhood"
  }
},
{
  "type": "node",
  "id": 676412892,
  "lat": -4.0309193,
  "lon": -79.2101647,
  "tags": {
    "admin_level": "9",
    "is_in": "Sucre",
    "name": "Héroes del Cenepa",
    "place": "neighbourhood"
  }
},
{
  "type": "node",
  "id": 676414064,
  "lat": -4.0132390,
  "lon": -79.1975016,
  "tags": {
    "admin_level": "9",
    "is_in": "Sucre",
    "name": "Barrio La Pradera",
    "place": "neighbourhood"
  }
},
{
  "type": "node",
  "id": 676414462,
  "lat": -4.0101191,
  "lon": -79.2065528,
  "tags": {
    "admin_level": "9",
    "is_in": "Sucre",
    "name": "Barrio La Tebaida",
    "place": "neighbourhood"
  }
},
{
  "type": "node",
  "id": 676417415,
  "lat": -4.0125309,
  "lon": -79.2421016,
  "tags": {
    "admin_level": "9",
    "is_in": "Sucre",
    "name": "Barrio Victor Emilio Valdiviezo",
    "place": "neighbourhood"
  }
},
{
  "type": "node",
  "id": 805919113,
  "lat": -6.8653999,
  "lon": -78.1455661,
  "tags": {
    "capital": "6",
    "ele": "2628",
    "name": "Celendín",
    "place": "town",
    "population": "19809",
    "population:date": "2017",
    "source:population": "INEI",
    "wikidata": "Q3344002",
    "wikipedia": "es:Celendín",
    "wikipedia:en": "Celendín",
    "wikipedia:qu": "Celendín",
    "wikipedia:war": "Celendín"
  }
},
{
  "type": "node",
  "id": 845108368,
  "lat": -4.0412191,
  "lon": -79.2051596,
  "tags": {
    "admin_level": "9",
    "is_in": "Sucre",
    "name": "Urbanización Asociación de Profesores UNL",
    "place": "neighbourhood"
  }
},
{
  "type": "node",
  "id": 847467814,
  "lat": -4.0150924,
  "lon": -79.2096222,
  "tags": {
    "is_in": "Sucre",
    "name": "Barrio Daniel Alvarez",
    "place": "neighbourhood"
  }
},
{
  "type": "node",
  "id": 878090522,
  "lat": -5.2389135,
  "lon": -79.4506491,
  "tags": {
    "capital": "6",
    "ele": "1937",
    "name": "Huancabamba",
    "place": "town",
    "population": "7031",
    "population:date": "2017",
    "source:population": "INEI",
    "wikidata": "Q2307821",
    "wikipedia": "es:Huancabamba"
  }
},
{
  "type": "node",
  "id": 987200577,
  "lat": -4.0144149,
  "lon": -79.2522026,
  "tags": {
    "name": "Payanchi",
    "place": "hamlet"
  }
},
{
  "type": "node",
  "id": 1235682973,
  "lat": -5.6695015,
  "lon": -78.4882068,
  "tags": {
    "name": "Peca Palacios",
    "place": "village"
  }
},
{
  "type": "node",
  "id": 1244584121,
  "lat": -4.2663407,
  "lon": -79.2046850,
  "tags": {
    "name": "Yamburara Alto",
    "place": "hamlet"
  }
},
{
  "type": "node",
  "id": 1392612954,
  "lat": -4.0698418,
  "lon": -78.9573870,
  "tags": {
    "name": "10 de Noviembre",
    "place": "neighbourhood"
  }
},
{
  "type": "node",
  "id": 1392612955,
  "lat": -4.0612017,
  "lon": -78.9495606,
  "tags": {
    "name": "Benjamín Carrión",
    "place": "neighbourhood"
  }
},
{
  "type": "node",
  "id": 1392612959,
  "lat": -4.0596846,
  "lon": -78.9658457,
  "tags": {
    "name": "El Limón",
    "place": "village"
  }
},
{
  "type": "node",
  "id": 1392612961,
  "lat": -4.0655721,
  "lon": -78.9502522,
  "tags": {
    "name": "Alonso Mercadillo",
    "place": "neighbourhood"
  }
},
{
  "type": "node",
  "id": 1392612962,
  "lat": -4.0735838,
  "lon": -78.9486957,
  "tags": {
    "name": "Santa Elena",
    "place": "village"
  }
},
{
  "type": "node",
  "id": 1392612964,
  "lat": -4.0697435,
  "lon": -78.9497931,
  "tags": {
    "name": "Bombuscaro",
    "place": "neighbourhood"
  }
},
{
  "type": "node",
  "id": 1392615020,
  "lat": -4.0550199,
  "lon": -78.9388004,
  "tags": {
    "name": "Pío Jaramillo",
    "place": "neighbourhood"
  }
},
{
  "type": "node",
  "id": 1392615021,
  "lat": -4.0567346,
  "lon": -78.9441017,
  "tags": {
    "name": "La Colina",
    "place": "neighbourhood"
  }
},
{
  "type": "node",
  "id": 1392615022,
  "lat": -4.0525072,
  "lon": -78.9321483,
  "tags": {
    "name": "La Chacra",
    "place": "neighbourhood"
  }
},
{
  "type": "node",
  "id": 1397814835,
  "lat": -4.0200222,
  "lon": -77.7513736,
  "tags": {
    "name": "La Poza",
    "place": "village"
  }
},
{
  "type": "node",
  "id": 1397814888,
  "lat": -4.0150938,
  "lon": -77.7583449,
  "tags": {
    "capital": "8",
    "ele": "182",
    "name": "Puerto Galilea",
    "place": "village",
    "wikidata": "Q11996453",
    "wikipedia": "es:Puerto Galilea"
  }
},
{
  "type": "node",
  "id": 1397829157,
  "lat": -4.2403201,
  "lon": -77.7250762,
  "tags": {
    "name": "Belén",
    "place": "village"
  }
},
{
  "type": "node",
  "id": 1397829165,
  "lat": -4.1620866,
  "lon": -77.7097290,
  "tags": {
    "name": "Guayabal",
    "place": "village",
    "population": "278",
    "source:population": "INEI 2017"
  }
},
{
  "type": "node",
  "id": 1397829167,
  "lat": -4.0166815,
  "lon": -77.8217521,
  "tags": {
    "name": "Nueva Luz",
    "place": "hamlet",
    "population": "79",
    "source:population": "INEI 2017"
  }
},
{
  "type": "node",
  "id": 1397829217,
  "lat": -4.3595969,
  "lon": -77.6949810,
  "tags": {
    "name": "San Juan",
    "place": "village"
  }
},
{
  "type": "node",
  "id": 1397829220,
  "lat": -4.0976749,
  "lon": -77.7260127,
  "tags": {
    "name": "Shebonal",
    "place": "village",
    "population": "201",
    "source:population": "INEI 2017"
  }
},
{
  "type": "node",
  "id": 1397829225,
  "lat": -4.0575482,
  "lon": -77.7590239,
  "tags": {
    "name": "Yutupis",
    "place": "village"
  }
},
{
  "type": "node",
  "id": 1412035806,
  "lat": -6.1737297,
  "lon": -77.8647931,
  "tags": {
    "capital": "8",
    "ele": "2591",
    "name": "Huancas",
    "place": "village",
    "wikidata": "Q27136803",
    "wikipedia": "es:Huancas (Amazonas)"
  }
},
{
  "type": "node",
  "id": 1412120882,
  "lat": -6.3920783,
  "lon": -77.9878770,
  "tags": {
    "is_in:country": "Peru",
    "name": "Choctamal",
    "place": "hamlet"
  }
},
{
  "type": "node",
  "id": 1412120883,
  "lat": -6.4845144,
  "lon": -77.8154878,
  "tags": {
    "alt_name": "Purísima Concepción de Badajoz de La Jalca",
    "capital": "8",
    "ele": "2857",
    "name": "La Jalca",
    "place": "village",
    "wikidata": "Q3374297",
    "wikipedia": "es:La Jalca"
  }
},
{
  "type": "node",
  "id": 1412120884,
  "lat": -6.4139592,
  "lon": -77.9686057,
  "tags": {
    "capital": "8",
    "ele": "2791",
    "name": "Longuita",
    "place": "village",
    "wikidata": "Q108110607"
  }
},
{
  "type": "node",
  "id": 1412122013,
  "lat": -6.5731418,
  "lon": -77.8656837,
  "tags": {
    "alt_name": "Santo Tomás de Quillay",
    "capital": "8",
    "ele": "2828",
    "name": "Santo Tomás",
    "place": "village",
    "wikidata": "Q108158251"
  }
},
{
  "type": "node",
  "id": 1412197045,
  "lat": -6.0351353,
  "lon": -77.9397967,
  "tags": {
    "name": "Nuevo Horizonte",
    "place": "hamlet"
  }
},
{
  "type": "node",
  "id": 1412197048,
  "lat": -5.9660210,
  "lon": -77.9454741,
  "tags": {
    "capital": "8",
    "ele": "1929",
    "name": "San Carlos",
    "place": "village",
    "wikidata": "Q107529183"
  }
},
{
  "type": "node",
  "id": 1412197059,
  "lat": -6.0425734,
  "lon": -77.9192897,
  "tags": {
    "alt_name": "Valera",
    "capital": "8",
    "ele": "1917",
    "name": "San Pablo",
    "place": "village",
    "wikidata": "Q108000861"
  }
},
{
  "type": "node",
  "id": 1415546016,
  "lat": -4.2763131,
  "lon": -79.4317784,
  "tags": {
    "name": "Petroglifo Anganuma",
    "place": "locality"
  }
},
{
  "type": "node",
  "id": 1417285822,
  "lat": -4.1306249,
  "lon": -79.2526210,
  "tags": {
    "ele": "2605.750317",
    "name": "San Antonio de Paycapamba",
    "place": "hamlet",
    "wpt_description": "19/08/2011 3:11 pm"
  }
},
{
  "type": "node",
  "id": 1447225838,
  "lat": -4.0103442,
  "lon": -79.2113767,
  "tags": {
    "name": "Ciudadela Época",
    "place": "neighbourhood"
  }
},
{
  "type": "node",
  "id": 1467431892,
  "lat": -4.0562938,
  "lon": -79.1999676,
  "tags": {
    "name": "Namanda",
    "place": "hamlet"
  }
},
{
  "type": "node",
  "id": 1467498391,
  "lat": -4.0722579,
  "lon": -79.1616749,
  "tags": {
    "fixme": "position",
    "name": "Nueva Pompeya",
    "place": "hamlet"
  }
},
{
  "type": "node",
  "id": 1467498395,
  "lat": -4.0751342,
  "lon": -79.1998353,
  "tags": {
    "name": "Quilluyaco",
    "place": "hamlet"
  }
},
{
  "type": "node",
  "id": 1467560237,
  "lat": -4.0889120,
  "lon": -79.2289366,
  "tags": {
    "name": "La Y de la Palma",
    "place": "hamlet"
  }
},
{
  "type": "node",
  "id": 1584718438,
  "lat": -4.2607428,
  "lon": -79.2226158,
  "tags": {
    "geonames:id": "3650199",
    "gns_classification": "PPL",
    "is_capital": "municipality",
    "is_in:country": "Ecuador",
    "is_in:country_code": "EC",
    "is_in:state": "Provincia de Loja",
    "name": "Vilcabamba",
    "place": "town",
    "source": "GNS",
    "wikidata": "Q153528",
    "wikipedia": "es:Vilcabamba (Ecuador)"
  }
},
{
  "type": "node",
  "id": 1650700976,
  "lat": -6.8399214,
  "lon": -78.5211160,
  "tags": {
    "name": "Romero",
    "place": "village"
  }
},
{
  "type": "node",
  "id": 1650700987,
  "lat": -6.8631960,
  "lon": -78.4805059,
  "tags": {
    "name": "Santiago de Chanta Alta",
    "place": "hamlet"
  }
},
{
  "type": "node",
  "id": 1701062345,
  "lat": -7.1183111,
  "lon": -78.8234350,
  "tags": {
    "capital": "6",
    "ele": "2383",
    "name": "San Pablo",
    "place": "town",
    "population": "3475",
    "population:date": "2017",
    "source:population": "INEI",
    "wikidata": "Q1134076",
    "wikipedia": "es:San Pablo (Cajamarca)"
  }
},
{
  "type": "node",
  "id": 1793667118,
  "lat": -7.2433206,
  "lon": -79.4703695,
  "tags": {
    "alt_name": "Guadalupe",
    "capital": "8",
    "designation": "Ciudad de Guadalupe, Provincia de Pacasmayo, Departamento de La Libertad",
    "ele": "94",
    "int_name": "Guadalupe, Provincia Pacasmayo",
    "name": "Guadalupe",
    "place": "town",
    "population": "21857",
    "population:date": "2017",
    "source": "Guadalupe, Pacasmayo",
    "source:population": "INEI",
    "wikidata": "Q2117510",
    "wikipedia": "es:Guadalupe (Perú)"
  }
},
{
  "type": "node",
  "id": 1849522171,
  "lat": -4.8174490,
  "lon": -79.2900632,
  "tags": {
    "name": "San Andrés",
    "place": "village"
  }
},
{
  "type": "node",
  "id": 1851106656,
  "lat": -4.0731520,
  "lon": -79.3073895,
  "tags": {
    "gns_classification": "PPL",
    "is_in": "Catamayo",
    "is_in:country": "Ecuador",
    "is_in:country_code": "EC",
    "is_in:state": "Provincia de Loja",
    "name": "El Tambo",
    "place": "village",
    "source": "GNS"
  }
},
{
  "type": "node",
  "id": 1872969792,
  "lat": -6.8448835,
  "lon": -78.0293132,
  "tags": {
    "name": "Chacanto",
    "place": "hamlet"
  }
},
{
  "type": "node",
  "id": 1873175949,
  "lat": -7.0849697,
  "lon": -78.3428527,
  "tags": {
    "capital": "8",
    "ele": "3102",
    "name": "Encañada",
    "place": "village"
  }
},
{
  "type": "node",
  "id": 1888690681,
  "lat": -6.3153223,
  "lon": -78.6996584,
  "tags": {
    "capital": "8",
    "ele": "1832",
    "name": "Sócota",
    "place": "village",
    "population": "2698",
    "population:date": "2017",
    "source:population": "INEI",
    "website": "http://www.municipalidadsocota.gob.pe/"
  }
},
{
  "type": "node",
  "id": 1896393387,
  "lat": -4.0032296,
  "lon": -78.7855988,
  "tags": {
    "ele": "1656.9",
    "name": "San Miguel",
    "place": "hamlet",
    "wpt_description": "San Miguel"
  }
},
{
  "type": "node",
  "id": 1896393414,
  "lat": -4.0704749,
  "lon": -78.7875680,
  "tags": {
    "ele": "1947.6",
    "name": "Nambija",
    "place": "hamlet",
    "wpt_description": "Nambija"
  }
},
{
  "type": "node",
  "id": 1896398152,
  "lat": -4.0231226,
  "lon": -78.8242271,
  "tags": {
    "ele": "1034.7",
    "name": "San Carlos de las Minas",
    "place": "village",
    "wpt_description": "San Carlos de las Minas"
  }
},
{
  "type": "node",
  "id": 1902206121,
  "lat": -7.1493680,
  "lon": -78.5037892,
  "tags": {
    "name": "Urbanización Horacio Zeballos",
    "place": "neighbourhood"
  }
},
{
  "type": "node",
  "id": 1902206122,
  "lat": -7.1596011,
  "lon": -78.5107079,
  "tags": {
    "name": "Urbanización Ramon Castilla",
    "place": "neighbourhood"
  }
},
{
  "type": "node",
  "id": 1902206123,
  "lat": -7.1612404,
  "lon": -78.5085728,
  "tags": {
    "name": "Urbanización Cajamarca",
    "place": "neighbourhood"
  }
},
{
  "type": "node",
  "id": 1902207610,
  "lat": -7.1639757,
  "lon": -78.4993460,
  "tags": {
    "name": "Villa Universitaria",
    "place": "hamlet"
  }
},
{
  "type": "node",
  "id": 1904291776,
  "lat": -5.7395481,
  "lon": -77.5037621,
  "tags": {
    "capital": "8",
    "ele": "958",
    "name": "Naranjos",
    "place": "village"
  }
},
{
  "type": "node",
  "id": 1919925551,
  "lat": -7.6238187,
  "lon": -78.0461711,
  "tags": {
    "capital": "6",
    "ele": "2661",
    "name": "Cajabamba",
    "place": "town",
    "population": "18603",
    "population:date": "2017",
    "source:population": "INEI",
    "wikidata": "Q3344351",
    "wikipedia": "es:Cajabamba (Perú)",
    "wikipedia:en": "Cajabamba, Peru"
  }
},
{
  "type": "node",
  "id": 1921750281,
  "lat": -7.1539171,
  "lon": -77.7026046,
  "tags": {
    "capital": "6",
    "ele": "3135",
    "name": "Bolívar",
    "place": "town",
    "population": "1620",
    "population:date": "2017",
    "source:population": "INEI",
    "wikidata": "Q3344072",
    "wikipedia": "es:Bolívar (Perú)",
    "wikipedia:en": "Bolívar, Peru"
  }
},
{
  "type": "node",
  "id": 1921880260,
  "lat": -7.4794410,
  "lon": -78.8193920,
  "tags": {
    "capital": "6",
    "ele": "1276",
    "name": "Cascas",
    "place": "town",
    "population": "4688",
    "population:date": "2017",
    "source:population": "INEI",
    "wikidata": "Q3344040",
    "wikipedia": "es:Cascas",
    "wikipedia:en": "Cascas"
  }
},
{
  "type": "node",
  "id": 1967117177,
  "lat": -7.6329843,
  "lon": -78.0581778,
  "tags": {
    "name": "Callash",
    "place": "hamlet",
    "source": "Bing"
  }
},
{
  "type": "node",
  "id": 2109389982,
  "lat": -7.2153064,
  "lon": -78.9188789,
  "tags": {
    "name": "Llallán",
    "place": "village"
  }
},
{
  "type": "node",
  "id": 2151608845,
  "lat": -5.6251674,
  "lon": -78.4756715,
  "tags": {
    "capital": "8",
    "ele": "605",
    "name": "El Parco",
    "place": "village",
    "wikidata": "Q29828788"
  }
},
{
  "type": "node",
  "id": 2151608847,
  "lat": -5.6122226,
  "lon": -78.4373718,
  "tags": {
    "capital": "8",
    "ele": "867",
    "name": "La Peca",
    "place": "village",
    "wikidata": "Q11982882"
  }
},
{
  "type": "node",
  "id": 2431408106,
  "lat": -7.1546409,
  "lon": -79.4435769,
  "tags": {
    "name": "Pacanguilla",
    "place": "town",
    "population": "8418",
    "population:date": "2017",
    "source:population": "INEI"
  }
},
{
  "type": "node",
  "id": 2431408107,
  "lat": -7.1795596,
  "lon": -79.4385219,
  "tags": {
    "name": "San José de Moro",
    "place": "village",
    "population": "2349",
    "population:date": "2017",
    "source:population": "INEI",
    "wikidata": "Q16491296",
    "wikipedia": "es:Complejo arqueológico San José de Moro"
  }
},
{
  "type": "node",
  "id": 2439744231,
  "lat": -6.1390013,
  "lon": -77.9519237,
  "tags": {
    "capital": "6",
    "ele": "2307",
    "name": "Lámud",
    "place": "village",
    "population": "3000",
    "wikidata": "Q2475775",
    "wikipedia": "es:Lámud"
  }
},
{
  "type": "node",
  "id": 2440354569,
  "lat": -6.0598032,
  "lon": -77.9746701,
  "tags": {
    "capital": "8",
    "ele": "2484",
    "name": "Paclas",
    "place": "village",
    "wikidata": "Q108157967"
  }
},
{
  "type": "node",
  "id": 2451530481,
  "lat": -6.3778116,
  "lon": -77.9064147,
  "tags": {
    "name": "Tingo",
    "place": "hamlet"
  }
},
{
  "type": "node",
  "id": 2469232396,
  "lat": -6.6434984,
  "lon": -79.3851288,
  "tags": {
    "capital": "8",
    "ele": "212",
    "name": "Chongoyape",
    "place": "town",
    "population": "7842",
    "population:date": "2017",
    "source:population": "INEI",
    "wikidata": "Q5767159",
    "wikipedia": "es:Chongoyape"
  }
},
{
  "type": "node",
  "id": 2469232590,
  "lat": -6.6927995,
  "lon": -79.4692078,
  "tags": {
    "name": "Tulipe",
    "place": "village"
  }
},
{
  "type": "node",
  "id": 2474171277,
  "lat": -5.2906392,
  "lon": -79.4231350,
  "tags": {
    "name": "Cashacoto",
    "place": "hamlet"
  }
},
{
  "type": "node",
  "id": 2474172734,
  "lat": -5.1482512,
  "lon": -79.4280528,
  "tags": {
    "capital": "8",
    "ele": "2461",
    "name": "Sapalache",
    "place": "village",
    "wikidata": "Q125680177",
    "wikipedia": "es:Sapalache"
  }
},
{
  "type": "node",
  "id": 2474172735,
  "lat": -5.3391518,
  "lon": -79.4289116,
  "tags": {
    "capital": "8",
    "ele": "1875",
    "name": "Sondorillo",
    "place": "village",
    "population": "629",
    "population:date": "2017",
    "source:population": "INEI",
    "wikidata": "Q125682257",
    "wikipedia": "es:Sondorillo"
  }
},
{
  "type": "node",
  "id": 2474172736,
  "lat": -5.3154337,
  "lon": -79.4101048,
  "tags": {
    "capital": "8",
    "ele": "1996",
    "name": "Sóndor",
    "place": "village",
    "population": "839",
    "population:date": "2017",
    "source:population": "INEI",
    "wikidata": "Q125682066",
    "wikipedia": "es:Sóndor"
  }
},
{
  "type": "node",
  "id": 2475282859,
  "lat": -7.2285214,
  "lon": -79.4277749,
  "tags": {
    "capital": "6",
    "ele": "134",
    "name": "Chepén",
    "place": "town",
    "population": "37466",
    "population:date": "2017",
    "source:population": "INEI",
    "website": "http://www.munichepen.gob.pe/web/",
    "wikidata": "Q2962698",
    "wikipedia": "es:Chepén"
  }
},
{
  "type": "node",
  "id": 2497767091,
  "lat": -6.4743810,
  "lon": -78.8851926,
  "tags": {
    "capital": "8",
    "ele": "1670",
    "name": "Cochabamba",
    "place": "village"
  }
},
{
  "type": "node",
  "id": 2497767092,
  "lat": -6.4940971,
  "lon": -78.9191075,
  "tags": {
    "name": "Yamaluc",
    "place": "hamlet"
  }
},
{
  "type": "node",
  "id": 2498748293,
  "lat": -6.4526579,
  "lon": -78.9609489,
  "tags": {
    "capital": "8",
    "ele": "2277",
    "name": "Huambos",
    "place": "village",
    "population": "1181",
    "population:date": "2017",
    "source:population": "INEI"
  }
},
{
  "type": "node",
  "id": 2505279086,
  "lat": -6.2994624,
  "lon": -77.9728542,
  "tags": {
    "capital": "8",
    "ele": "3217",
    "name": "Colcamar",
    "place": "village",
    "wikidata": "Q1107652"
  }
},
{
  "type": "node",
  "id": 2505286322,
  "lat": -6.3374745,
  "lon": -77.8809744,
  "tags": {
    "alt_name": "San Isidro de Mayno",
    "capital": "8",
    "ele": "2335",
    "name": "Maino",
    "place": "village",
    "wikidata": "Q56404617"
  }
},
{
  "type": "node",
  "id": 2505286325,
  "lat": -6.3082358,
  "lon": -77.8990560,
  "tags": {
    "capital": "8",
    "ele": "2659",
    "name": "Levanto",
    "place": "village",
    "wikidata": "Q4271227",
    "wikipedia": "es:Levanto (Chachapoyas)"
  }
},
{
  "type": "node",
  "id": 2534686766,
  "lat": -6.6261427,
  "lon": -78.9443834,
  "tags": {
    "capital": "6",
    "ele": "2025",
    "name": "Santa Cruz de Succhabamba",
    "place": "town",
    "population": "5176",
    "population:date": "2017",
    "source:population": "INEI",
    "wikidata": "Q11043230",
    "wikipedia": "es:Santa Cruz de Succhabamba"
  }
},
{
  "type": "node",
  "id": 2567529304,
  "lat": -6.8456153,
  "lon": -79.3024852,
  "tags": {
    "capital": "8",
    "ele": "206",
    "name": "Oyotún",
    "place": "town",
    "population": "5735",
    "population:date": "2017",
    "source:population": "INEI",
    "wikidata": "Q27557971",
    "wikipedia": "es:Oyotún"
  }
},
{
  "type": "node",
  "id": 2580240914,
  "lat": -6.3929949,
  "lon": -78.6112435,
  "tags": {
    "capital": "8",
    "ele": "2059",
    "name": "Tacabamba",
    "place": "town",
    "population": "3019",
    "population:date": "2017",
    "source:population": "INEI",
    "wikidata": "Q27211884",
    "wikipedia": "es:Tacabamba"
  }
},
{
  "type": "node",
  "id": 2580288121,
  "lat": -6.9426948,
  "lon": -78.1356347,
  "tags": {
    "capital": "8",
    "ele": "2621",
    "name": "Sucre",
    "place": "village",
    "population": "1122"
  }
},
{
  "type": "node",
  "id": 2598288042,
  "lat": -7.1637846,
  "lon": -78.4647758,
  "tags": {
    "capital": "8",
    "ele": "2661",
    "name": "Baños del Inca",
    "place": "town",
    "population": "13361",
    "population:date": "2017",
    "source:population": "INEI",
    "wikidata": "Q27194673",
    "wikipedia": "es:Baños del Inca"
  }
},
{
  "type": "node",
  "id": 2599175013,
  "lat": -7.2489716,
  "lon": -78.3794946,
  "tags": {
    "capital": "8",
    "ele": "2559",
    "name": "Jesús",
    "place": "town",
    "population": "3209",
    "population:date": "2017",
    "source:population": "INEI"
  }
},
{
  "type": "node",
  "id": 2599345048,
  "lat": -7.3360223,
  "lon": -78.1704892,
  "tags": {
    "capital": "6",
    "ele": "2256",
    "name": "San Marcos",
    "place": "town",
    "population": "9182",
    "population:date": "2017",
    "source:population": "INEI",
    "wikidata": "Q3348299"
  }
},
{
  "type": "node",
  "id": 2609481497,
  "lat": -7.3683450,
  "lon": -78.1304423,
  "tags": {
    "capital": "8",
    "ele": "2606",
    "name": "Ichocán",
    "place": "village",
    "population": "616",
    "wikidata": "Q5986382",
    "wikipedia": "es:Ichocán"
  }
},
{
  "type": "node",
  "id": 2614052459,
  "lat": -7.3038275,
  "lon": -79.4807031,
  "tags": {
    "name": "Ciudad de Dios",
    "place": "town",
    "population": "8606",
    "population:date": "2017",
    "source:population": "INEI",
    "wikidata": "Q16490953",
    "wikipedia": "es:Ciudad de Dios (Perú)"
  }
},
{
  "type": "node",
  "id": 2614052460,
  "lat": -7.3500235,
  "lon": -79.4550174,
  "tags": {
    "capital": "8",
    "ele": "107",
    "name": "San José",
    "place": "town",
    "population": "3894",
    "population:date": "2017",
    "source:population": "INEI",
    "wikidata": "Q7414538",
    "wikipedia": "es:San José de Pacasmayo"
  }
},
{
  "type": "node",
  "id": 2619230353,
  "lat": -7.2213783,
  "lon": -78.8396922,
  "tags": {
    "capital": "8",
    "ele": "850",
    "name": "Chilete",
    "place": "village",
    "population": "2023",
    "population:date": "2017",
    "source:population": "INEI"
  }
},
{
  "type": "node",
  "id": 2619283485,
  "lat": -7.0003030,
  "lon": -78.8514382,
  "tags": {
    "capital": "6",
    "ele": "2608",
    "name": "San Miguel de Pallaques",
    "place": "town",
    "population": "3989",
    "population:date": "2017",
    "source:population": "INEI",
    "wikidata": "Q11002429",
    "wikipedia": "es:San Miguel de Pallaques",
    "wikipedia:qu": "San Miguel Pallaqi",
    "wikipedia:war": "San Miguel de Pallaques"
  }
},
{
  "type": "node",
  "id": 2626758296,
  "lat": -7.4249816,
  "lon": -78.9273177,
  "tags": {
    "capital": "8",
    "ele": "1362",
    "name": "San Benito",
    "place": "village",
    "population": "546"
  }
},
{
  "type": "node",
  "id": 2629356166,
  "lat": -4.0559557,
  "lon": -79.3364491,
  "tags": {
    "name": "San Miguel de Juanes",
    "place": "hamlet"
  }
},
{
  "type": "node",
  "id": 2629356213,
  "lat": -4.0056576,
  "lon": -79.3829130,
  "tags": {
    "name": "La Vega",
    "place": "hamlet"
  }
},
{
  "type": "node",
  "id": 2629356226,
  "lat": -4.0393835,
  "lon": -79.3617798,
  "tags": {
    "name": "La Extensa",
    "place": "hamlet"
  }
},
{
  "type": "node",
  "id": 2629356267,
  "lat": -4.0968602,
  "lon": -79.3046193,
  "tags": {
    "name": "La Capilla Baja",
    "place": "hamlet"
  }
},
{
  "type": "node",
  "id": 2629356270,
  "lat": -4.1282523,
  "lon": -79.2993059,
  "tags": {
    "name": "La Era",
    "place": "hamlet"
  }
},
{
  "type": "node",
  "id": 2629356300,
  "lat": -4.0635246,
  "lon": -79.3272705,
  "tags": {
    "name": "Juanes",
    "place": "hamlet"
  }
},
{
  "type": "node",
  "id": 2629497595,
  "lat": -7.1685387,
  "lon": -78.8281601,
  "tags": {
    "capital": "8",
    "ele": "1342",
    "name": "San Bernardino",
    "place": "village"
  }
},
{
  "type": "node",
  "id": 2644743027,
  "lat": -7.0419042,
  "lon": -78.0680177,
  "tags": {
    "capital": "8",
    "ele": "2818",
    "name": "Oxamarca",
    "place": "village"
  }
},
{
  "type": "node",
  "id": 2656644706,
  "lat": -7.5740159,
  "lon": -78.0700192,
  "tags": {
    "capital": "8",
    "ele": "2809",
    "name": "Cauday",
    "place": "village"
  }
},
{
  "type": "node",
  "id": 2676853435,
  "lat": -6.4281585,
  "lon": -78.4825570,
  "tags": {
    "name": "La Pucara",
    "place": "village"
  }
},
{
  "type": "node",
  "id": 2678583861,
  "lat": -6.4713704,
  "lon": -78.4192787,
  "tags": {
    "capital": "8",
    "ele": "2426",
    "name": "Chadín",
    "place": "village"
  }
},
{
  "type": "node",
  "id": 2678622839,
  "lat": -6.2152175,
  "lon": -78.3203232,
  "tags": {
    "capital": "8",
    "ele": "1747",
    "name": "Camporredondo",
    "place": "village",
    "wikidata": "Q13189264"
  }
},
{
  "type": "node",
  "id": 2678622853,
  "lat": -6.3714821,
  "lon": -78.4116540,
  "tags": {
    "capital": "8",
    "ele": "2204",
    "name": "Comugan",
    "place": "village"
  }
},
{
  "type": "node",
  "id": 2678622858,
  "lat": -6.2666782,
  "lon": -78.2756709,
  "tags": {
    "name": "La Playa",
    "place": "hamlet"
  }
},
{
  "type": "node",
  "id": 2678622859,
  "lat": -6.3388089,
  "lon": -78.4104206,
  "tags": {
    "name": "Los Lloques",
    "place": "hamlet"
  }
},
{
  "type": "node",
  "id": 2678623003,
  "lat": -6.2353261,
  "lon": -78.2685931,
  "tags": {
    "capital": "8",
    "ele": "1728",
    "name": "Ocalli",
    "place": "village",
    "wikidata": "Q13191034"
  }
},
{
  "type": "node",
  "id": 2678647708,
  "lat": -6.2119289,
  "lon": -78.3050425,
  "tags": {
    "name": "Ocsho",
    "place": "hamlet"
  }
},
{
  "type": "node",
  "id": 2678647709,
  "lat": -6.2059955,
  "lon": -78.3029547,
  "tags": {
    "name": "Palto",
    "place": "hamlet"
  }
},
{
  "type": "node",
  "id": 2678651022,
  "lat": -6.2089622,
  "lon": -78.2869508,
  "tags": {
    "name": "Quispe",
    "place": "village"
  }
},
{
  "type": "node",
  "id": 2678651030,
  "lat": -6.2945372,
  "lon": -78.4815066,
  "tags": {
    "name": "San Jose",
    "place": "village"
  }
},
{
  "type": "node",
  "id": 2678651031,
  "lat": -6.3420322,
  "lon": -78.4722300,
  "tags": {
    "name": "Shahuindo",
    "place": "hamlet"
  }
},
{
  "type": "node",
  "id": 2678651032,
  "lat": -6.3116001,
  "lon": -78.4894747,
  "tags": {
    "name": "Susangate",
    "place": "hamlet"
  }
},
{
  "type": "node",
  "id": 2678667988,
  "lat": -6.3055806,
  "lon": -78.2263214,
  "tags": {
    "name": "San Pedro",
    "place": "hamlet"
  }
},
{
  "type": "node",
  "id": 2678667989,
  "lat": -6.2825104,
  "lon": -78.2114801,
  "tags": {
    "capital": "8",
    "ele": "1867",
    "name": "Collonce",
    "place": "village",
    "wikidata": "Q108110740"
  }
},
{
  "type": "node",
  "id": 2678667990,
  "lat": -6.2852047,
  "lon": -78.2184623,
  "tags": {
    "name": "Motupe",
    "place": "hamlet"
  }
},
{
  "type": "node",
  "id": 2678669337,
  "lat": -6.2964180,
  "lon": -78.2178157,
  "tags": {
    "name": "Salinguerra",
    "place": "hamlet"
  }
},
{
  "type": "node",
  "id": 2678669341,
  "lat": -6.2458525,
  "lon": -78.2390452,
  "tags": {
    "name": "Selcho",
    "place": "hamlet"
  }
},
{
  "type": "node",
  "id": 2678669345,
  "lat": -6.2528286,
  "lon": -78.2130246,
  "tags": {
    "name": "Tactamal",
    "place": "hamlet"
  }
},
{
  "type": "node",
  "id": 2678677402,
  "lat": -6.3336069,
  "lon": -78.2063686,
  "tags": {
    "name": "Pircapampa",
    "place": "hamlet"
  }
},
{
  "type": "node",
  "id": 2678683856,
  "lat": -6.3513880,
  "lon": -78.2004485,
  "tags": {
    "name": "San Miguel de Poro Poro",
    "place": "hamlet"
  }
},
{
  "type": "node",
  "id": 2678692878,
  "lat": -6.2978300,
  "lon": -78.2398588,
  "tags": {
    "capital": "8",
    "ele": "1749",
    "name": "Providencia",
    "place": "village",
    "wikidata": "Q13190320"
  }
},
{
  "type": "node",
  "id": 2678712141,
  "lat": -6.1908612,
  "lon": -78.3303985,
  "tags": {
    "name": "Cococho",
    "place": "village"
  }
},
{
  "type": "node",
  "id": 2678712142,
  "lat": -6.3106908,
  "lon": -78.2958646,
  "tags": {
    "name": "Nueva Chota",
    "place": "hamlet"
  }
},
{
  "type": "node",
  "id": 2678725385,
  "lat": -6.1843961,
  "lon": -78.3571299,
  "tags": {
    "name": "Guadalupe",
    "place": "hamlet"
  }
},
{
  "type": "node",
  "id": 2679312560,
  "lat": -6.1617892,
  "lon": -78.3615432,
  "tags": {
    "name": "Danja",
    "place": "hamlet"
  }
},
{
  "type": "node",
  "id": 2679312561,
  "lat": -6.1580529,
  "lon": -78.3681936,
  "tags": {
    "name": "Limones",
    "place": "hamlet"
  }
},
{
  "type": "node",
  "id": 2679312562,
  "lat": -6.0965677,
  "lon": -78.4213209,
  "tags": {
    "capital": "8",
    "ele": "1251",
    "name": "Lonya Grande",
    "place": "village",
    "wikidata": "Q131451947"
  }
},
{
  "type": "node",
  "id": 2679313164,
  "lat": -6.1615168,
  "lon": -78.3422538,
  "tags": {
    "name": "Santa Rosa",
    "place": "hamlet"
  }
},
{
  "type": "node",
  "id": 2679313165,
  "lat": -6.1440869,
  "lon": -78.3514106,
  "tags": {
    "name": "Tullanya",
    "place": "hamlet"
  }
},
{
  "type": "node",
  "id": 2679313166,
  "lat": -6.1538638,
  "lon": -78.3764497,
  "tags": {
    "name": "Yungasyo",
    "place": "hamlet"
  }
},
{
  "type": "node",
  "id": 2679481740,
  "lat": -6.0499731,
  "lon": -78.3961768,
  "tags": {
    "name": "Nueva York",
    "place": "hamlet"
  }
},
{
  "type": "node",
  "id": 2679481741,
  "lat": -6.0589249,
  "lon": -78.4058747,
  "tags": {
    "name": "Roblepampa",
    "place": "hamlet"
  }
},
{
  "type": "node",
  "id": 2679481742,
  "lat": -6.0705731,
  "lon": -78.4094206,
  "tags": {
    "name": "Yungay",
    "place": "hamlet"
  }
},
{
  "type": "node",
  "id": 2679536838,
  "lat": -6.6499001,
  "lon": -78.2319972,
  "tags": {
    "name": "Chalán",
    "place": "hamlet"
  }
},
{
  "type": "node",
  "id": 2679536845,
  "lat": -6.6029568,
  "lon": -78.2003220,
  "tags": {
    "capital": "8",
    "ele": "2192",
    "name": "Chumuch",
    "place": "village",
    "wikidata": "Q13189427"
  }
},
{
  "type": "node",
  "id": 2679536846,
  "lat": -6.6388721,
  "lon": -78.2089424,
  "tags": {
    "name": "El Alizo",
    "place": "hamlet"
  }
},
{
  "type": "node",
  "id": 2704667208,
  "lat": -4.0687287,
  "lon": -78.9570021,
  "tags": {
    "name": "San Francisco",
    "place": "neighbourhood"
  }
},
{
  "type": "node",
  "id": 2782635479,
  "lat": -4.2437290,
  "lon": -79.2208705,
  "tags": {
    "designation": "Parroquia",
    "name": "San Pedro de Vilcabamba",
    "place": "village"
  }
},
{
  "type": "node",
  "id": 2782635480,
  "lat": -4.2405932,
  "lon": -79.2226462,
  "tags": {
    "name": "El Dorado",
    "place": "neighbourhood"
  }
},
{
  "type": "node",
  "id": 2782644547,
  "lat": -4.2450976,
  "lon": -79.2261223,
  "tags": {
    "name": "Amala",
    "place": "neighbourhood"
  }
},
{
  "type": "node",
  "id": 2782644548,
  "lat": -4.2341307,
  "lon": -79.2130653,
  "tags": {
    "name": "Sacapo",
    "place": "neighbourhood"
  }
},
{
  "type": "node",
  "id": 2782651292,
  "lat": -4.2328526,
  "lon": -79.2305681,
  "tags": {
    "name": "Cararango",
    "place": "neighbourhood"
  }
},
{
  "type": "node",
  "id": 2782651294,
  "lat": -4.2445519,
  "lon": -79.2638556,
  "tags": {
    "name": "San Joaquin",
    "place": "hamlet"
  }
},
{
  "type": "node",
  "id": 2782651295,
  "lat": -4.2446375,
  "lon": -79.2528693,
  "tags": {
    "name": "El Chaupi",
    "place": "neighbourhood"
  }
},
{
  "type": "node",
  "id": 2802318242,
  "lat": -4.2193255,
  "lon": -79.2585759,
  "tags": {
    "ele": "1470",
    "name": "Malacatos",
    "place": "town"
  }
},
{
  "type": "node",
  "id": 2802327810,
  "lat": -4.0486632,
  "lon": -79.1962352,
  "tags": {
    "name": "El Capuli",
    "place": "hamlet"
  }
},
{
  "type": "node",
  "id": 2805221086,
  "lat": -4.0179119,
  "lon": -79.1985935,
  "tags": {
    "name": "Barrio Yaguarcuna",
    "place": "neighbourhood"
  }
},
{
  "type": "node",
  "id": 2805267416,
  "lat": -4.2647990,
  "lon": -79.2200830,
  "tags": {
    "name": "El Atillo",
    "place": "neighbourhood"
  }
},
{
  "type": "node",
  "id": 2848740137,
  "lat": -4.2604347,
  "lon": -79.2154997,
  "tags": {
    "name": "Yamburara Bajo",
    "place": "hamlet"
  }
},
{
  "type": "node",
  "id": 2916528636,
  "lat": -7.2864772,
  "lon": -78.5746209,
  "tags": {
    "name": "Choropampa",
    "place": "village"
  }
},
{
  "type": "node",
  "id": 2916660252,
  "lat": -7.2466740,
  "lon": -79.2211770,
  "tags": {
    "name": "Gallito Ciego",
    "place": "village"
  }
},
{
  "type": "node",
  "id": 2916726764,
  "lat": -7.0376183,
  "lon": -78.6325335,
  "tags": {
    "name": "Granja Porcon",
    "place": "village"
  }
},
{
  "type": "node",
  "id": 2942525321,
  "lat": -7.2736631,
  "lon": -78.1598435,
  "tags": {
    "capital": "8",
    "ele": "2697",
    "name": "Paucamarca",
    "place": "village",
    "population": "326",
    "population:date": "2017",
    "source": "MTC",
    "source:population": "INEI"
  }
},
{
  "type": "node",
  "id": 2942853120,
  "lat": -6.8376064,
  "lon": -78.2449857,
  "tags": {
    "capital": "8",
    "ele": "2528",
    "name": "Huasmin",
    "place": "village"
  }
},
{
  "type": "node",
  "id": 2942873945,
  "lat": -6.7070638,
  "lon": -78.2592671,
  "tags": {
    "name": "Sachaman",
    "place": "village"
  }
},
{
  "type": "node",
  "id": 2953033237,
  "lat": -5.7478317,
  "lon": -78.6638314,
  "tags": {
    "name": "Siempre Viva",
    "place": "village"
  }
},
{
  "type": "node",
  "id": 2963856198,
  "lat": -7.5702023,
  "lon": -78.5353436,
  "tags": {
    "name": "El Porvenir",
    "place": "village"
  }
},
{
  "type": "node",
  "id": 2963856199,
  "lat": -7.5954683,
  "lon": -78.4658832,
  "tags": {
    "capital": "8",
    "ele": "2358",
    "name": "Sayapullo",
    "place": "village"
  }
},
{
  "type": "node",
  "id": 2964117199,
  "lat": -7.6986431,
  "lon": -78.6258748,
  "tags": {
    "capital": "8",
    "ele": "1514",
    "name": "Compin",
    "place": "village"
  }
},
{
  "type": "node",
  "id": 2964117200,
  "lat": -7.6406310,
  "lon": -78.5526335,
  "tags": {
    "capital": "8",
    "ele": "2171",
    "name": "Lucma",
    "place": "village",
    "wikidata": "Q16593989",
    "wikipedia": "es:Lucma (Gran Chimú)"
  }
},
{
  "type": "node",
  "id": 2965198293,
  "lat": -6.3645672,
  "lon": -77.9012639,
  "tags": {
    "name": "Villa San Juan",
    "place": "hamlet"
  }
},
{
  "type": "node",
  "id": 2965343133,
  "lat": -6.8128348,
  "lon": -77.9392022,
  "tags": {
    "name": "Saullamar",
    "place": "hamlet"
  }
},
{
  "type": "node",
  "id": 2965343134,
  "lat": -6.8405107,
  "lon": -77.9348678,
  "tags": {
    "name": "San Basilio",
    "place": "hamlet"
  }
},
{
  "type": "node",
  "id": 2965343973,
  "lat": -6.8713157,
  "lon": -78.0888542,
  "tags": {
    "name": "Limon",
    "place": "hamlet"
  }
},
{
  "type": "node",
  "id": 2965344273,
  "lat": -6.8859479,
  "lon": -78.1485880,
  "tags": {
    "name": "Bellavista",
    "place": "village"
  }
},
{
  "type": "node",
  "id": 2966394070,
  "lat": -4.0247653,
  "lon": -77.7777256,
  "tags": {
    "name": "Shiringa",
    "place": "village",
    "population": "271",
    "source:population": "INEI 2017"
  }
},
{
  "type": "node",
  "id": 2969781233,
  "lat": -7.6897064,
  "lon": -78.4427284,
  "tags": {
    "capital": "8",
    "ele": "2181",
    "name": "Huaranchal",
    "place": "village"
  }
},
{
  "type": "node",
  "id": 2979344274,
  "lat": -5.4983148,
  "lon": -78.8251798,
  "tags": {
    "name": "Ticungue",
    "place": "hamlet"
  }
},
{
  "type": "node",
  "id": 2979344275,
  "lat": -5.5385158,
  "lon": -78.8230476,
  "tags": {
    "name": "San Lorenzo",
    "place": "hamlet"
  }
},
{
  "type": "node",
  "id": 2979344276,
  "lat": -5.7946861,
  "lon": -78.7817292,
  "tags": {
    "name": "Mochenta",
    "place": "hamlet"
  }
},
{
  "type": "node",
  "id": 2979344277,
  "lat": -5.8365982,
  "lon": -78.2457255,
  "tags": {
    "name": "Salado",
    "place": "hamlet"
  }
},
{
  "type": "node",
  "id": 2979349146,
  "lat": -5.9231455,
  "lon": -78.8415241,
  "tags": {
    "name": "El Tumi",
    "place": "hamlet"
  }
},
{
  "type": "node",
  "id": 2979349147,
  "lat": -5.0429229,
  "lon": -79.0889101,
  "tags": {
    "name": "La Montaña",
    "place": "hamlet"
  }
},
{
  "type": "node",
  "id": 2979349148,
  "lat": -5.0660422,
  "lon": -79.0856005,
  "tags": {
    "name": "Linderos",
    "place": "hamlet"
  }
},
{
  "type": "node",
  "id": 2979349149,
  "lat": -5.7818477,
  "lon": -78.7829474,
  "tags": {
    "name": "Balsahuayco",
    "place": "hamlet"
  }
},
{
  "type": "node",
  "id": 2979349364,
  "lat": -6.0080885,
  "lon": -78.8589582,
  "tags": {
    "name": "Cuyca",
    "place": "hamlet"
  }
},
{
  "type": "node",
  "id": 2979349365,
  "lat": -5.0967160,
  "lon": -79.0555435,
  "tags": {
    "name": "El Rejo",
    "place": "hamlet"
  }
},
{
  "type": "node",
  "id": 2979349366,
  "lat": -5.1235071,
  "lon": -79.0377824,
  "tags": {
    "name": "Yandiluza",
    "place": "hamlet"
  }
},
{
  "type": "node",
  "id": 2979349367,
  "lat": -5.4497913,
  "lon": -78.8340340,
  "tags": {
    "name": "Tamborapa",
    "place": "village"
  }
},
{
  "type": "node",
  "id": 2979349368,
  "lat": -5.5736300,
  "lon": -78.8064649,
  "tags": {
    "name": "La Floresta",
    "place": "hamlet"
  }
},
{
  "type": "node",
  "id": 2979349377,
  "lat": -5.7106710,
  "lon": -78.5831521,
  "tags": {
    "name": "El Valor Cruce Cayalti",
    "place": "hamlet"
  }
},
{
  "type": "node",
  "id": 2979349378,
  "lat": -5.8900154,
  "lon": -78.1900627,
  "tags": {
    "name": "Magunchal",
    "place": "hamlet"
  }
},
{
  "type": "node",
  "id": 2979349379,
  "lat": -5.9202175,
  "lon": -78.0932579,
  "tags": {
    "name": "Tialanco",
    "place": "hamlet"
  }
},
{
  "type": "node",
  "id": 2979349380,
  "lat": -5.9177117,
  "lon": -77.9617709,
  "tags": {
    "name": "Suyobamba",
    "place": "hamlet"
  }
},
{
  "type": "node",
  "id": 2979349381,
  "lat": -5.9995247,
  "lon": -77.9638375,
  "tags": {
    "name": "Donce",
    "place": "hamlet"
  }
},
{
  "type": "node",
  "id": 2979349382,
  "lat": -6.0195979,
  "lon": -77.9521645,
  "tags": {
    "capital": "8",
    "ele": "1377",
    "name": "Churuja",
    "place": "village",
    "wikidata": "Q11963811"
  }
},
{
  "type": "node",
  "id": 2979351165,
  "lat": -5.0045531,
  "lon": -79.0876516,
  "tags": {
    "capital": "8",
    "ele": "702",
    "name": "Namballe",
    "place": "village"
  }
},
{
  "type": "node",
  "id": 2979351243,
  "lat": -5.9387259,
  "lon": -79.2638347,
  "tags": {
    "name": "Patacon",
    "place": "hamlet"
  }
},
{
  "type": "node",
  "id": 2979351244,
  "lat": -5.7814596,
  "lon": -79.3927280,
  "tags": {
    "name": "El Tambo",
    "place": "hamlet"
  }
},
{
  "type": "node",
  "id": 2979351663,
  "lat": -6.0418131,
  "lon": -79.1300978,
  "tags": {
    "capital": "8",
    "ele": "894",
    "name": "Pucará",
    "place": "town",
    "population": "3533",
    "population:date": "2017",
    "source:population": "INEI",
    "wikidata": "Q27194688",
    "wikipedia": "es:Pucará (Cajamarca)"
  }
},
{
  "type": "node",
  "id": 2979351664,
  "lat": -5.9522657,
  "lon": -79.2292786,
  "tags": {
    "name": "Las Juntas",
    "place": "hamlet"
  }
},
{
  "type": "node",
  "id": 2979351665,
  "lat": -5.9336808,
  "lon": -79.2830282,
  "tags": {
    "name": "El Arenal",
    "place": "hamlet"
  }
},
{
  "type": "node",
  "id": 2979351666,
  "lat": -5.8048429,
  "lon": -79.3746577,
  "tags": {
    "name": "Ochentiuno",
    "place": "hamlet"
  }
},
{
  "type": "node",
  "id": 2979352074,
  "lat": -6.0990261,
  "lon": -77.8934758,
  "tags": {
    "name": "Tingorbamba",
    "place": "hamlet"
  }
},
{
  "type": "node",
  "id": 2979352075,
  "lat": -6.2023631,
  "lon": -77.9018457,
  "tags": {
    "name": "Caclic",
    "place": "hamlet",
    "wikidata": "Q1025048"
  }
},
{
  "type": "node",
  "id": 2979352227,
  "lat": -6.0474250,
  "lon": -78.8984805,
  "tags": {
    "alt_name": "Puerto Chiple",
    "name": "Chiple",
    "place": "hamlet"
  }
},
{
  "type": "node",
  "id": 2979352229,
  "lat": -6.0272718,
  "lon": -78.9395700,
  "tags": {
    "name": "Cabramayo",
    "place": "hamlet"
  }
},
{
  "type": "node",
  "id": 2979353122,
  "lat": -5.8879263,
  "lon": -78.8272696,
  "tags": {
    "name": "Zonanga",
    "place": "hamlet"
  }
},
{
  "type": "node",
  "id": 2979353123,
  "lat": -5.6442868,
  "lon": -78.7465139,
  "tags": {
    "name": "Shanango",
    "place": "hamlet"
  }
},
{
  "type": "node",
  "id": 2979353124,
  "lat": -5.5142275,
  "lon": -78.8232313,
  "tags": {
    "name": "Santa Elena",
    "place": "hamlet"
  }
},
{
  "type": "node",
  "id": 2979353196,
  "lat": -5.0872306,
  "lon": -79.0749067,
  "tags": {
    "name": "Puerto San Antonio",
    "place": "hamlet"
  }
},
{
  "type": "node",
  "id": 2979353345,
  "lat": -5.0903610,
  "lon": -79.0612872,
  "tags": {
    "name": "Sector México",
    "place": "hamlet"
  }
},
{
  "type": "node",
  "id": 2979353547,
  "lat": -5.0993034,
  "lon": -79.0463669,
  "tags": {
    "name": "Nueva Esperanza",
    "place": "hamlet"
  }
},
{
  "type": "node",
  "id": 2979353548,
  "lat": -5.1264690,
  "lon": -79.0450905,
  "tags": {
    "name": "San Ramón",
    "place": "hamlet"
  }
},
{
  "type": "node",
  "id": 2979353550,
  "lat": -5.1304932,
  "lon": -79.0469292,
  "tags": {
    "name": "Barrio Nuevo",
    "place": "hamlet"
  }
},
{
  "type": "node",
  "id": 2979353551,
  "lat": -5.1392896,
  "lon": -79.0209343,
  "tags": {
    "name": "Marizagua",
    "place": "hamlet"
  }
},
{
  "type": "node",
  "id": 2979353552,
  "lat": -5.3431986,
  "lon": -78.7962168,
  "tags": {
    "name": "Perico",
    "place": "village"
  }
},
{
  "type": "node",
  "id": 2979353653,
  "lat": -5.8721413,
  "lon": -77.9564259,
  "tags": {
    "name": "Carrera",
    "place": "hamlet"
  }
},
{
  "type": "node",
  "id": 2982745599,
  "lat": -6.4538706,
  "lon": -77.9339442,
  "tags": {
    "name": "Mangalpata",
    "place": "hamlet"
  }
},
{
  "type": "node",
  "id": 2985485974,
  "lat": -4.0171365,
  "lon": -78.7133596,
  "tags": {
    "name": "San Isidro",
    "place": "hamlet"
  }
},
{
  "type": "node",
  "id": 2999025147,
  "lat": -6.9625378,
  "lon": -78.1795366,
  "tags": {
    "name": "Lomas del Indio",
    "place": "hamlet"
  }
},
{
  "type": "node",
  "id": 2999032946,
  "lat": -7.0047575,
  "lon": -78.1975149,
  "tags": {
    "name": "Cruz Conga",
    "place": "hamlet"
  }
},
{
  "type": "node",
  "id": 3001391570,
  "lat": -7.1291885,
  "lon": -78.3517708,
  "tags": {
    "name": "Santa Rosa de Chaquil",
    "place": "hamlet"
  }
},
{
  "type": "node",
  "id": 3001401788,
  "lat": -7.0335323,
  "lon": -78.2137136,
  "tags": {
    "name": "Pampa del Toro",
    "place": "hamlet"
  }
},
{
  "type": "node",
  "id": 3001402330,
  "lat": -7.1161471,
  "lon": -78.3265560,
  "tags": {
    "name": "Polloc",
    "place": "village"
  }
},
{
  "type": "node",
  "id": 3001408619,
  "lat": -7.2392020,
  "lon": -78.7009483,
  "tags": {
    "name": "La Viña",
    "place": "hamlet"
  }
},
{
  "type": "node",
  "id": 3001411577,
  "lat": -7.1390833,
  "lon": -78.3668608,
  "tags": {
    "name": "Chaquilpampa",
    "place": "hamlet"
  }
},
{
  "type": "node",
  "id": 3001417886,
  "lat": -7.2576784,
  "lon": -78.5008555,
  "tags": {
    "name": "Choten",
    "place": "hamlet"
  }
},
{
  "type": "node",
  "id": 3001419282,
  "lat": -7.2136305,
  "lon": -78.9274960,
  "tags": {
    "name": "Salitre",
    "place": "village"
  }
},
{
  "type": "node",
  "id": 3001430693,
  "lat": -7.2917583,
  "lon": -78.4975638,
  "tags": {
    "capital": "8",
    "ele": "2316",
    "name": "San Juan",
    "place": "village"
  }
},
{
  "type": "node",
  "id": 3001431442,
  "lat": -7.2505840,
  "lon": -78.6592926,
  "tags": {
    "capital": "8",
    "ele": "1295",
    "name": "Magdalena",
    "place": "village"
  }
},
{
  "type": "node",
  "id": 3001432992,
  "lat": -7.1774495,
  "lon": -79.0107563,
  "tags": {
    "name": "Quinden Bajo",
    "place": "village"
  }
},
{
  "type": "node",
  "id": 3001433026,
  "lat": -7.2547832,
  "lon": -79.2371438,
  "tags": {
    "name": "Pay Pay",
    "place": "hamlet"
  }
},
{
  "type": "node",
  "id": 3001434570,
  "lat": -7.2273617,
  "lon": -78.9027968,
  "tags": {
    "name": "La Mónica",
    "place": "hamlet"
  }
},
{
  "type": "node",
  "id": 3001434628,
  "lat": -7.2255882,
  "lon": -79.1533630,
  "tags": {
    "name": "La Huaca",
    "place": "hamlet"
  }
},
{
  "type": "node",
  "id": 3001442714,
  "lat": -7.1857696,
  "lon": -79.0271802,
  "tags": {
    "name": "Yatahual",
    "place": "hamlet"
  }
},
{
  "type": "node",
  "id": 3049618190,
  "lat": -5.2589549,
  "lon": -79.4405950,
  "tags": {
    "name": "Huancabamba rural",
    "place": "village"
  }
},
{
  "type": "node",
  "id": 3083341312,
  "lat": -5.3160315,
  "lon": -79.2831531,
  "tags": {
    "capital": "8",
    "ele": "1885",
    "name": "Tabaconas",
    "place": "village"
  }
},
{
  "type": "node",
  "id": 3098652753,
  "lat": -6.0501628,
  "lon": -78.5284288,
  "tags": {
    "capital": "8",
    "ele": "1025",
    "name": "Yamón",
    "place": "village"
  }
},
{
  "type": "node",
  "id": 3098684394,
  "lat": -6.0921175,
  "lon": -78.4433025,
  "tags": {
    "name": "San Isidro",
    "place": "hamlet"
  }
},
{
  "type": "node",
  "id": 3099508032,
  "lat": -4.0315344,
  "lon": -78.8986435,
  "tags": {
    "name": "Timbara",
    "place": "village"
  }
},
{
  "type": "node",
  "id": 3099519760,
  "lat": -6.0117082,
  "lon": -78.3987540,
  "tags": {
    "name": "Huamboya",
    "place": "hamlet"
  }
},
{
  "type": "node",
  "id": 3099519761,
  "lat": -6.0654606,
  "lon": -78.6005186,
  "tags": {
    "name": "Puerto Malleta",
    "place": "hamlet"
  }
},
{
  "type": "node",
  "id": 3100389239,
  "lat": -6.0398604,
  "lon": -78.4101199,
  "tags": {
    "name": "Chaupe",
    "place": "hamlet"
  }
},
{
  "type": "node",
  "id": 3100389240,
  "lat": -6.0297100,
  "lon": -78.4019862,
  "tags": {
    "name": "La Pirca",
    "place": "hamlet"
  }
},
{
  "type": "node",
  "id": 3100389241,
  "lat": -6.0920723,
  "lon": -78.3837161,
  "tags": {
    "name": "Pillunya",
    "place": "hamlet"
  }
},
{
  "type": "node",
  "id": 3100389242,
  "lat": -6.0922667,
  "lon": -78.3930993,
  "tags": {
    "name": "Santa Rosa",
    "place": "hamlet"
  }
},
{
  "type": "node",
  "id": 3100389243,
  "lat": -6.0954946,
  "lon": -78.3839482,
  "tags": {
    "name": "Suiza",
    "place": "hamlet"
  }
},
{
  "type": "node",
  "id": 3101957705,
  "lat": -6.0373892,
  "lon": -78.5462983,
  "tags": {
    "name": "Buenos Aires",
    "place": "hamlet"
  }
},
{
  "type": "node",
  "id": 3101957706,
  "lat": -5.9666615,
  "lon": -78.5799350,
  "tags": {
    "name": "Hualango",
    "place": "hamlet"
  }
},
{
  "type": "node",
  "id": 3101957707,
  "lat": -5.9981760,
  "lon": -78.5692840,
  "tags": {
    "name": "Octucho",
    "place": "hamlet"
  }
},
{
  "type": "node",
  "id": 3101957708,
  "lat": -5.9880909,
  "lon": -78.6281805,
  "tags": {
    "name": "Sinai",
    "place": "hamlet"
  }
},
{
  "type": "node",
  "id": 3101957709,
  "lat": -5.9811202,
  "lon": -78.6298741,
  "tags": {
    "name": "Tactago",
    "place": "hamlet"
  }
},
{
  "type": "node",
  "id": 3101957710,
  "lat": -6.0159756,
  "lon": -78.5590599,
  "tags": {
    "name": "Tierra Prometida",
    "place": "hamlet"
  }
},
{
  "type": "node",
  "id": 3103628259,
  "lat": -5.8942887,
  "lon": -78.2383681,
  "tags": {
    "capital": "8",
    "ele": "1176",
    "name": "Jamalca",
    "place": "village"
  }
},
{
  "type": "node",
  "id": 3103735227,
  "lat": -5.6376206,
  "lon": -78.5581600,
  "tags": {
    "capital": "8",
    "ele": "390",
    "name": "El Milagro",
    "place": "village"
  }
},
{
  "type": "node",
  "id": 3103735228,
  "lat": -5.6770245,
  "lon": -78.5209539,
  "tags": {
    "name": "Huarangopampa",
    "place": "hamlet"
  }
},
{
  "type": "node",
  "id": 3103737629,
  "lat": -5.7142513,
  "lon": -78.4975479,
  "tags": {
    "name": "La Versalla",
    "place": "hamlet"
  }
},
{
  "type": "node",
  "id": 3103742376,
  "lat": -5.9356569,
  "lon": -78.6640646,
  "tags": {
    "capital": "8",
    "ele": "456",
    "name": "Cumba",
    "place": "village"
  }
},
{
  "type": "node",
  "id": 3103808720,
  "lat": -5.7369151,
  "lon": -78.4299829,
  "tags": {
    "capital": "8",
    "ele": "447",
    "name": "Cajaruro",
    "place": "village"
  }
},
{
  "type": "node",
  "id": 3104020335,
  "lat": -6.1502716,
  "lon": -77.3033308,
  "tags": {
    "capital": "8",
    "ele": "1497",
    "name": "Vista Alegre",
    "place": "village"
  }
},
{
  "type": "node",
  "id": 3104088450,
  "lat": -6.1469314,
  "lon": -78.0126385,
  "tags": {
    "capital": "8",
    "ele": "2883",
    "name": "Trita",
    "place": "village",
    "wikidata": "Q108262214"
  }
},
{
  "type": "node",
  "id": 3108349403,
  "lat": -5.7282847,
  "lon": -77.5195482,
  "tags": {
    "ele": "1009",
    "name": "Pioneros",
    "place": "village",
    "population": "979",
    "source:population": "INEI 2017"
  }
},
{
  "type": "node",
  "id": 3108356228,
  "lat": -5.6964670,
  "lon": -77.8616302,
  "tags": {
    "name": "El Progreso",
    "place": "village"
  }
},
{
  "type": "node",
  "id": 3108356986,
  "lat": -5.7887792,
  "lon": -79.4363086,
  "tags": {
    "name": "Hualapampa",
    "place": "hamlet"
  }
},
{
  "type": "node",
  "id": 3108356987,
  "lat": -5.7830367,
  "lon": -79.4062318,
  "tags": {
    "name": "El Progreso",
    "place": "hamlet"
  }
},
{
  "type": "node",
  "id": 3108358355,
  "lat": -5.9754359,
  "lon": -79.2054512,
  "tags": {
    "name": "San Anto",
    "place": "hamlet"
  }
},
{
  "type": "node",
  "id": 3108364862,
  "lat": -5.7535349,
  "lon": -78.6900444,
  "tags": {
    "name": "Coral Quemado",
    "place": "hamlet"
  }
},
{
  "type": "node",
  "id": 3108364913,
  "lat": -5.8594552,
  "lon": -78.2282683,
  "tags": {
    "name": "La Caldera",
    "place": "hamlet"
  }
},
{
  "type": "node",
  "id": 3108366877,
  "lat": -5.6979100,
  "lon": -77.8834539,
  "tags": {
    "name": "Agua Dulce",
    "place": "village"
  }
},
{
  "type": "node",
  "id": 3108367781,
  "lat": -5.8201484,
  "lon": -78.3047898,
  "tags": {
    "name": "Ñuñayjalca",
    "place": "hamlet"
  }
},
{
  "type": "node",
  "id": 3108367783,
  "lat": -5.7686834,
  "lon": -77.9000168,
  "tags": {
    "name": "Shucayacu",
    "place": "hamlet"
  }
},
{
  "type": "node",
  "id": 3108367784,
  "lat": -5.7085145,
  "lon": -77.9065410,
  "tags": {
    "name": "La Esperanza",
    "place": "hamlet"
  }
},
{
  "type": "node",
  "id": 3108369441,
  "lat": -5.8207940,
  "lon": -78.2755686,
  "tags": {
    "name": "Puerto Naranjitos",
    "place": "hamlet"
  }
},
{
  "type": "node",
  "id": 3108370902,
  "lat": -5.8513188,
  "lon": -77.3523151,
  "tags": {
    "name": "La Victoria",
    "place": "village"
  }
},
{
  "type": "node",
  "id": 3108370947,
  "lat": -5.7174481,
  "lon": -77.5696362,
  "tags": {
    "ele": "893",
    "name": "Aguas Claras",
    "place": "village",
    "population": "893",
    "source:population": "INEI 2017"
  }
},
{
  "type": "node",
  "id": 3108373100,
  "lat": -5.7752788,
  "lon": -77.4360983,
  "tags": {
    "ele": "923",
    "name": "Tumbaro",
    "place": "village",
    "population": "605",
    "source:population": "INEI 2017"
  }
},
{
  "type": "node",
  "id": 3108373101,
  "lat": -5.8161342,
  "lon": -77.3836630,
  "tags": {
    "capital": "8",
    "ele": "877",
    "name": "Bajo Naranjillo",
    "place": "village"
  }
},
{
  "type": "node",
  "id": 3108373239,
  "lat": -5.7455159,
  "lon": -77.4848774,
  "tags": {
    "name": "3 de Mayo",
    "place": "hamlet"
  }
},
{
  "type": "node",
  "id": 3108373240,
  "lat": -5.8039482,
  "lon": -77.4008355,
  "tags": {
    "name": "Naranjillo",
    "place": "hamlet"
  }
},
{
  "type": "node",
  "id": 3108373429,
  "lat": -5.7343532,
  "lon": -77.5382179,
  "tags": {
    "ele": "1058",
    "name": "Santa Rosa del Mirador",
    "place": "village",
    "population": "851",
    "source:population": "INEI 2017"
  }
},
{
  "type": "node",
  "id": 3113511868,
  "lat": -5.7433213,
  "lon": -78.7889943,
  "tags": {
    "name": "Fila Alta",
    "place": "suburb",
    "population": "8107",
    "population:date": "2017",
    "source:population": "INEI"
  }
},
{
  "type": "node",
  "id": 3150440975,
  "lat": -6.6182405,
  "lon": -77.8024123,
  "tags": {
    "alt_name": "San Ildefonso",
    "capital": "8",
    "ele": "2405",
    "name": "Montevideo",
    "place": "village",
    "population": "951",
    "wikidata": "Q11989901"
  }
},
{
  "type": "node",
  "id": 3198828021,
  "lat": -4.6823296,
  "lon": -79.1519422,
  "tags": {
    "name": "Pucarón",
    "place": "hamlet"
  }
},
{
  "type": "node",
  "id": 3278487346,
  "lat": -5.1377526,
  "lon": -78.3225734,
  "tags": {
    "name": "Nazareth",
    "place": "village",
    "population": "511",
    "source": "http://www.fallingrain.com/world/PE/01/Nazareth2.html",
    "source:population": "INEI 2017",
    "wikidata": "Q6983293",
    "wikipedia": "es:Comunidad nativa Nazareth"
  }
},
{
  "type": "node",
  "id": 3278508992,
  "lat": -5.0579683,
  "lon": -78.3359646,
  "tags": {
    "ele": "270",
    "name": "Imacita",
    "place": "village"
  }
},
{
  "type": "node",
  "id": 3279686843,
  "lat": -6.2356517,
  "lon": -79.3167892,
  "tags": {
    "capital": "8",
    "ele": "3026",
    "name": "Incahuasi",
    "place": "village",
    "wikidata": "Q26262433",
    "wikipedia": "es:Incahuasi (Ferreñafe)"
  }
},
{
  "type": "node",
  "id": 3291998914,
  "lat": -6.8738122,
  "lon": -79.3437522,
  "tags": {
    "capital": "8",
    "ele": "171",
    "name": "Nueva Arica",
    "place": "village"
  }
},
{
  "type": "node",
  "id": 3294061274,
  "lat": -6.0463852,
  "lon": -79.2653773,
  "tags": {
    "alt_name": "Cañaris",
    "capital": "8",
    "ele": "2410",
    "name": "Kañaris",
    "place": "village"
  }
},
{
  "type": "node",
  "id": 3296986174,
  "lat": -7.6989560,
  "lon": -77.7437094,
  "tags": {
    "capital": "8",
    "ele": "2682",
    "name": "Sartimbamba",
    "place": "village"
  }
},
{
  "type": "node",
  "id": 3311756599,
  "lat": -7.1713536,
  "lon": -79.4858080,
  "tags": {
    "capital": "8",
    "ele": "91",
    "name": "Pacanga",
    "place": "town",
    "population": "3593",
    "population:date": "2017",
    "source:population": "INEI",
    "wikidata": "Q7121871"
  }
},
{
  "type": "node",
  "id": 3311859519,
  "lat": -7.1654654,
  "lon": -77.8593877,
  "tags": {
    "capital": "8",
    "ele": "2596",
    "name": "Ucuncha",
    "place": "village"
  }
},
{
  "type": "node",
  "id": 3313277609,
  "lat": -7.0470027,
  "lon": -77.8056155,
  "tags": {
    "capital": "8",
    "ele": "3028",
    "name": "Uchumarca",
    "place": "village"
  }
},
{
  "type": "node",
  "id": 3313279846,
  "lat": -7.0436074,
  "lon": -77.8720314,
  "tags": {
    "capital": "8",
    "ele": "2616",
    "name": "Longotea",
    "place": "village"
  }
},
{
  "type": "node",
  "id": 3313280454,
  "lat": -7.5430367,
  "lon": -77.5889964,
  "tags": {
    "name": "Condormarca",
    "place": "village"
  }
},
{
  "type": "node",
  "id": 3313585546,
  "lat": -7.4400512,
  "lon": -77.6927933,
  "tags": {
    "capital": "8",
    "ele": "3478",
    "name": "Bambamarca",
    "place": "village"
  }
},
{
  "type": "node",
  "id": 3319774095,
  "lat": -6.6771728,
  "lon": -78.8189194,
  "tags": {
    "capital": "8",
    "ele": "2498",
    "name": "Yauyacán",
    "place": "village",
    "wikidata": "Q16648749"
  }
},
{
  "type": "node",
  "id": 3320660560,
  "lat": -6.6065559,
  "lon": -78.7938390,
  "tags": {
    "capital": "8",
    "ele": "2335",
    "name": "Uticyacu",
    "place": "village",
    "wikidata": "Q10388501"
  }
},
{
  "type": "node",
  "id": 3323456904,
  "lat": -6.5639099,
  "lon": -79.0513314,
  "tags": {
    "capital": "8",
    "ele": "2474",
    "name": "Sexi",
    "place": "village",
    "wikidata": "Q7458861"
  }
},
{
  "type": "node",
  "id": 3323813563,
  "lat": -6.6906321,
  "lon": -78.9166193,
  "tags": {
    "capital": "8",
    "ele": "1935",
    "name": "Saucepampa",
    "place": "village"
  }
},
{
  "type": "node",
  "id": 3324076862,
  "lat": -6.7388038,
  "lon": -78.9204565,
  "tags": {
    "capital": "8",
    "ele": "2060",
    "name": "Pulán",
    "place": "village",
    "wikidata": "Q16623296",
    "wikipedia": "es:Pulán"
  }
},
{
  "type": "node",
  "id": 3324102551,
  "lat": -6.6501099,
  "lon": -78.7875763,
  "tags": {
    "capital": "8",
    "ele": "2171",
    "name": "Ninabamba",
    "place": "village"
  }
},
{
  "type": "node",
  "id": 3324504670,
  "lat": -6.5929359,
  "lon": -78.8957639,
  "tags": {
    "capital": "8",
    "ele": "1711",
    "name": "La Esperanza",
    "place": "village"
  }
},
{
  "type": "node",
  "id": 3325094881,
  "lat": -6.5759161,
  "lon": -78.8674371,
  "tags": {
    "capital": "8",
    "ele": "1624",
    "name": "Chancay Baños",
    "place": "village"
  }
},
{
  "type": "node",
  "id": 3325099401,
  "lat": -6.6739084,
  "lon": -79.0326561,
  "tags": {
    "capital": "8",
    "ele": "1340",
    "name": "Catache",
    "place": "village"
  }
},